state,geoid,ansi_code,name,land_area_meters_sq,water_area_meters_sq,land_area_miles_sq,water_area_miles_sq,latitude,longitude,year
AL,01001,161526,Autauga County,1539614693,25744269,594.4490000000001,9.94,32.532237,-86.64644,2017
AL,01003,161527,Baldwin County,4117605847,1133109409,1589.817,437.496,30.659218,-87.74606700000001,2017
AL,01005,161528,Barbour County,2292144656,50538698,885.002,19.512999999999998,31.870253,-85.40510400000001,2017
AL,01007,161529,Bibb County,1612165763,9603798,622.461,3.708,33.015893,-87.12714799999999,2017
AL,01009,161530,Blount County,1670079465,15039864,644.821,5.807,33.977358,-86.56644,2017
AL,01011,161531,Bullock County,1613059168,6054988,622.806,2.338,32.101759,-85.717261,2017
AL,01013,161532,Butler County,2011985458,2718248,776.832,1.05,31.751666999999998,-86.681969,2017
AL,01015,161533,Calhoun County,1569244078,16573120,605.889,6.399,33.771706,-85.822513,2017
AL,01017,161534,Chambers County,1545009122,17048126,596.531,6.582000000000001,32.915504,-85.394032,2017
AL,01019,161535,Cherokee County,1434228753,119702920,553.759,46.218,34.069515,-85.65424200000001,2017
AL,01021,161536,Chilton County,1794478905,20590301,692.852,7.95,32.854051,-86.726607,2017
AL,01023,161537,Choctaw County,2365869837,19144469,913.467,7.392,31.990954,-88.248889,2017
AL,01025,161538,Clarke County,3207494103,36657891,1238.42,14.154000000000002,31.685521,-87.818624,2017
AL,01027,161539,Clay County,1564253513,5283523,603.962,2.04,33.2704,-85.863525,2017
AL,01029,161540,Cleburne County,1450663938,2354898,560.105,0.909,33.671964,-85.516126,2017
AL,01031,161541,Coffee County,1758565927,3907189,678.9860000000001,1.5090000000000001,31.402258000000003,-85.989602,2017
AL,01033,161542,Colbert County,1534875463,80027136,592.619,30.899,34.703112,-87.801457,2017
AL,01035,161543,Conecuh County,2201948618,6643480,850.177,2.565,31.430926,-86.988722,2017
AL,01037,161544,Coosa County,1685850816,39987274,650.911,15.439,32.931445000000004,-86.243482,2017
AL,01039,161545,Covington County,2668871125,34489285,1030.4569999999999,13.315999999999999,31.243987,-86.44872099999999,2017
AL,01041,161546,Crenshaw County,1576952826,5388561,608.865,2.081,31.732826,-86.319222,2017
AL,01043,161547,Cullman County,1903070708,52424813,734.78,20.241,34.131923,-86.86926700000001,2017
AL,01045,161548,Dale County,1453311031,4016457,561.127,1.551,31.430653999999997,-85.609476,2017
AL,01047,161549,Dallas County,2534863481,39131006,978.716,15.109000000000002,32.33354,-87.114356,2017
AL,01049,161550,DeKalb County,2012676476,4121538,777.0989999999999,1.591,34.460929,-85.80399200000001,2017
AL,01051,161551,Elmore County,1601762124,99965171,618.444,38.597,32.597229,-86.142735,2017
AL,01053,161552,Escambia County,2447822304,20797758,945.11,8.03,31.122287,-87.16841,2017
AL,01055,161553,Etowah County,1386383039,34559412,535.286,13.343,34.047641,-86.034263,2017
AL,01057,161554,Fayette County,1625693280,4330881,627.684,1.672,33.716157,-87.764292,2017
AL,01059,161555,Franklin County,1641839976,32645401,633.918,12.604000000000001,34.441989,-87.842814,2017
AL,01061,161556,Geneva County,1487870866,11604964,574.47,4.481,31.092382,-85.821022,2017
AL,01063,161557,Greene County,1675782063,33416143,647.023,12.902000000000001,32.844497,-87.9642,2017
AL,01065,161558,Hale County,1667907107,32423356,643.9830000000001,12.519,32.752796000000004,-87.62306099999999,2017
AL,01067,161559,Henry County,1454926615,16986823,561.75,6.559,31.516978,-85.239971,2017
AL,01069,161560,Houston County,1501807104,4730565,579.851,1.8259999999999998,31.158183,-85.29641099999999,2017
AL,01071,161561,Jackson County,2791974087,126334708,1077.987,48.778,34.764114,-85.980056,2017
AL,01073,161562,Jefferson County,2877921069,32756125,1111.172,12.647,33.553444,-86.896536,2017
AL,01075,161563,Lamar County,1566544636,1600679,604.846,0.618,33.787085,-88.08743100000001,2017
AL,01077,161564,Lauderdale County,1730742958,133012067,668.2439999999999,51.356,34.904121999999994,-87.650997,2017
AL,01079,161565,Lawrence County,1788859207,68687366,690.682,26.52,34.529776,-87.321865,2017
AL,01081,161566,Lee County,1573550101,21491164,607.5509999999999,8.298,32.604064,-85.353048,2017
AL,01083,161567,Limestone County,1450278151,122329451,559.956,47.232,34.810239,-86.981399,2017
AL,01085,161568,Lowndes County,1854201380,23721835,715.9110000000001,9.158999999999999,32.147888,-86.650586,2017
AL,01087,161569,Macon County,1576801788,11399310,608.807,4.401,32.387027,-85.692887,2017
AL,01089,161570,Madison County,2076145098,28777508,801.6039999999999,11.110999999999999,34.764238,-86.55108,2017
AL,01091,161572,Marengo County,2530140238,14966620,976.893,5.779,32.247591,-87.79109100000001,2017
AL,01093,161573,Marion County,1922656984,3183684,742.342,1.229,34.138219,-87.881551,2017
AL,01095,161574,Marshall County,1465528724,148498594,565.844,57.336000000000006,34.309564,-86.321668,2017
AL,01097,161575,Mobile County,3184127436,1073844850,1229.399,414.61400000000003,30.684571999999996,-88.196568,2017
AL,01099,161576,Monroe County,2656517454,22609680,1025.687,8.73,31.580332000000002,-87.383266,2017
AL,01101,161577,Montgomery County,2033764493,37997545,785.2410000000001,14.671,32.202881,-86.204461,2017
AL,01103,161578,Morgan County,1500602270,50931876,579.386,19.665,34.454484,-86.846402,2017
AL,01105,161579,Perry County,1863885725,10952676,719.65,4.229,32.639005,-87.29382700000001,2017
AL,01107,161580,Pickens County,2282893859,22521211,881.43,8.695,33.296793,-88.096863,2017
AL,01109,161581,Pike County,1740647521,2336975,672.068,0.902,31.798651,-85.941604,2017
AL,01111,161582,Randolph County,1503615934,9285420,580.549,3.585,33.296475,-85.46406800000001,2017
AL,01113,161583,Russell County,1660557977,15661281,641.145,6.047000000000001,32.289811,-85.18698,2017
AL,01115,164997,St. Clair County,1636634176,56284614,631.908,21.732,33.712963,-86.315663,2017
AL,01117,161584,Shelby County,2034107820,62542790,785.373,24.148000000000003,33.263042999999996,-86.678089,2017
AL,01119,161585,Sumter County,2340898915,24634883,903.826,9.512,32.597481,-88.200057,2017
AL,01121,161586,Talladega County,1908251622,60931665,736.78,23.526,33.369314,-86.17593000000001,2017
AL,01123,161587,Tallapoosa County,1855771079,128817905,716.5169999999999,49.736999999999995,32.863369,-85.799553,2017
AL,01125,161588,Tuscaloosa County,3421041792,78682797,1320.872,30.38,33.29022,-87.52278299999999,2017
AL,01127,161589,Walker County,2048686077,36754700,791.002,14.190999999999999,33.791558,-87.30109399999999,2017
AL,01129,161590,Washington County,2797720370,21652733,1080.2060000000001,8.36,31.405216999999997,-88.197564,2017
AL,01131,161591,Wilcox County,2301075110,49057525,888.45,18.941,31.990082,-87.304935,2017
AL,01133,161592,Winston County,1587608917,48922729,612.979,18.889,34.154607,-87.36529,2017
AK,02013,1419964,Aleutians East Borough,18091325125,20800198540,6985.1,8031.0019999999995,55.24504399999999,-161.997477,2017
AK,02016,1419965,Aleutians West Census Area,11376643262,25184877501,4392.5470000000005,9723.936,51.948964000000004,179.621188,2017
AK,02020,1416061,Anchorage Municipality,4419537010,615526050,1706.3929999999998,237.65599999999998,61.17425,-149.284329,2017
AK,02050,1419966,Bethel Census Area,105228855314,12768607553,40629.09,4929.987,60.929141,-160.152625,2017
AK,02060,1419967,Bristol Bay Borough,1248342013,949750202,481.98800000000006,366.70099999999996,58.741615,-156.966992,2017
AK,02068,1419988,Denali Borough,32729613863,66068878,12636.975,25.509,63.68110600000001,-150.026544,2017
AK,02070,1419968,Dillingham Census Area,47477685010,5951019310,18331.237,2297.701,59.543326,-158.267123,2017
AK,02090,1419969,Fairbanks North Star Borough,18982307701,274103901,7329.11,105.83200000000001,64.692317,-146.601733,2017
AK,02100,1419970,Haines Borough,6233111973,1054089659,2406.618,406.986,59.098404,-135.57579099999998,2017
AK,02105,2371430,Hoonah-Angoon Census Area,16981434901,7808657621,6556.569,3014.94,58.253462,-136.320731,2017
AK,02110,1419971,Juneau City and Borough,6829216436,1423792753,2636.775,549.729,58.643522999999995,-134.28116699999998,2017
AK,02122,1419972,Kenai Peninsula Borough,41499900917,22525622024,16023.202,8697.192,60.366668000000004,-152.322283,2017
AK,02130,1419973,Ketchikan Gateway Borough,12579507052,5220218255,4856.975,2015.5379999999998,55.449938,-131.106685,2017
AK,02150,1419974,Kodiak Island Borough,17134142683,14166400752,6615.53,5469.678000000001,57.7044,-153.918372,2017
AK,02158,1419985,Kusilvak Census Area,44218384953,6697190751,17072.815,2585.8,62.283588,-163.190171,2017
AK,02164,1419975,Lake and Peninsula Borough,61894488750,25991759519,23897.597,10035.475,58.108674,-156.414001,2017
AK,02170,1419976,Matanuska-Susitna Borough,63760578688,1704714297,24618.097999999998,658.194,62.279075,-149.61756200000002,2017
AK,02180,1419977,Nome Census Area,59496552709,13774839669,22971.748,5318.496,64.783686,-164.18891200000002,2017
AK,02185,1419978,North Slope Borough,230056014591,15547168253,88825.12800000001,6002.795,69.449343,-153.47283000000002,2017
AK,02188,1419979,Northwest Arctic Borough,92326483031,12878258897,35647.456,4972.3240000000005,67.005066,-160.021086,2017
AK,02195,2516404,Petersburg Borough,7513010884,2385501229,2900.79,921.047,57.112458,-133.008598,2017
AK,02198,1419980,Prince of Wales-Hyder Census Area,13630288113,14625197420,5262.684,5646.821,55.682773,-133.162389,2017
AK,02220,1419981,Sitka City and Borough,7433222810,5037940435,2869.9829999999997,1945.16,57.193204,-135.36739599999999,2017
AK,02230,2339479,Skagway Municipality,1124107036,28607173,434.02,11.045,59.575097,-135.335418,2017
AK,02240,1419983,Southeast Fairbanks Census Area,64290353013,752301282,24822.645,290.465,63.864996999999995,-143.218628,2017
AK,02261,1419984,Valdez-Cordova Census Area,88635832004,15763249807,34222.488,6086.225,61.34984,-145.02314099999998,2017
AK,02275,2516402,Wrangell City and Borough,6619614514,2384746838,2555.848,920.7560000000001,56.317416,-132.343978,2017
AK,02282,1419986,Yakutat City and Borough,19746741191,35390272145,7624.26,13664.261,59.963024,-141.76158700000002,2017
AK,02290,1419987,Yukon-Koyukuk Census Area,377030936019,5953180597,145572.464,2298.536,65.375718,-151.577873,2017
AZ,04001,25441,Apache County,29001298929,54174161,11197.465,20.916999999999998,35.385084,-109.490172,2017
AZ,04003,25442,Cochise County,15966166113,137024922,6164.571,52.906000000000006,31.840128999999997,-109.77516299999999,2017
AZ,04005,25443,Coconino County,48222181220,110085803,18618.689,42.504,35.829692,-111.773728,2017
AZ,04007,40471,Gila County,12323146398,97119865,4757.994000000001,37.498000000000005,33.789618,-110.81187,2017
AZ,04009,25444,Graham County,11972778533,47436491,4622.715999999999,18.315,32.931828,-109.87831000000001,2017
AZ,04011,42807,Greenlee County,4770701078,13750461,1841.9779999999998,5.309,33.238872,-109.242323,2017
AZ,04012,43540,La Paz County,11653980557,36567994,4499.627,14.119000000000002,33.72761,-114.03880600000001,2017
AZ,04013,37026,Maricopa County,23825875275,64310266,9199.222,24.83,33.346540999999995,-112.495534,2017
AZ,04015,25445,Mohave County,34475503964,387344307,13311.067,149.554,35.717705,-113.74968899999999,2017
AZ,04017,42808,Navajo County,25770094249,24078111,9949.889000000001,9.297,35.390785,-110.321025,2017
AZ,04019,25446,Pima County,23794788865,5259325,9187.22,2.031,32.128523,-111.783027,2017
AZ,04021,25447,Pinal County,13897471114,22332471,5365.844,8.623,32.918538,-111.36638700000002,2017
AZ,04023,40472,Santa Cruz County,3203613249,3088046,1236.922,1.192,31.525733000000002,-110.845228,2017
AZ,04025,42809,Yavapai County,21039796372,11501575,8123.5109999999995,4.441,34.631212,-112.577385,2017
AZ,04027,23901,Yuma County,14281265651,13171316,5514.028,5.085,32.773942,-113.910905,2017
AR,05001,63755,Arkansas County,2560988637,116409463,988.803,44.946000000000005,34.28957,-91.376547,2017
AR,05003,63756,Ashley County,2396650149,39309860,925.352,15.177999999999999,33.190835,-91.772267,2017
AR,05005,69895,Baxter County,1435438032,84171993,554.226,32.499,36.280759,-92.330476,2017
AR,05007,69896,Benton County,2195019818,94307300,847.502,36.412,36.337835999999996,-94.256224,2017
AR,05009,69897,Boone County,1528076369,31092507,589.994,12.005,36.304299,-93.079236,2017
AR,05011,63757,Bradley County,1681514463,9532926,649.236,3.681,33.466549,-92.169156,2017
AR,05013,63758,Calhoun County,1627975434,9926146,628.565,3.833,33.56046,-92.513879,2017
AR,05015,66975,Carroll County,1631597803,22434173,629.9630000000001,8.662,36.337773999999996,-93.541663,2017
AR,05017,69160,Chicot County,1668823393,120315319,644.336,46.45399999999999,33.267139,-91.297158,2017
AR,05019,66845,Clark County,2243130473,43387485,866.078,16.752,34.053315999999995,-93.176208,2017
AR,05021,63759,Clay County,1656214466,5097734,639.4680000000001,1.9680000000000002,36.367302,-90.418704,2017
AR,05023,66983,Cleburne County,1434168142,98893718,553.735,38.183,35.566315,-92.05995,2017
AR,05025,63760,Cleveland County,1548252545,2500346,597.784,0.965,33.893201,-92.188714,2017
AR,05027,63761,Columbia County,1983889573,1990757,765.9839999999999,0.769,33.223038,-93.232843,2017
AR,05029,66846,Conway County,1430330693,37331621,552.254,14.414000000000001,35.265702000000005,-92.68924799999999,2017
AR,05031,66847,Craighead County,1831867347,14069141,707.288,5.432,35.827729,-90.631421,2017
AR,05033,69161,Crawford County,1531188224,31076498,591.195,11.999,35.583011,-94.23621899999999,2017
AR,05035,69162,Crittenden County,1580755099,67432622,610.3330000000001,26.035999999999998,35.211878999999996,-90.315332,2017
AR,05037,66848,Cross County,1596421812,15344834,616.382,5.925,35.285692,-90.763984,2017
AR,05039,66849,Dallas County,1728522517,1864048,667.3860000000001,0.72,33.967822999999996,-92.653999,2017
AR,05041,66850,Desha County,1989461629,133085432,768.135,51.385,33.828752,-91.24410300000001,2017
AR,05043,66851,Drew County,2145434146,18914033,828.357,7.303,33.587241999999996,-91.722778,2017
AR,05045,66852,Faulkner County,1678176463,41765990,647.948,16.125999999999998,35.146285999999996,-92.324711,2017
AR,05047,66853,Franklin County,1576930289,27936032,608.856,10.786,35.508558,-93.887665,2017
AR,05049,66854,Fulton County,1601111649,5526927,618.193,2.134,36.383619,-91.819664,2017
AR,05051,66855,Garland County,1755290919,147383373,677.722,56.905,34.578852000000005,-93.14693199999999,2017
AR,05053,66856,Grant County,1636384394,2896901,631.812,1.1179999999999999,34.285568,-92.422979,2017
AR,05055,66857,Greene County,1496205815,4789586,577.688,1.849,36.120607,-90.566346,2017
AR,05057,66858,Hempstead County,1884268212,35372110,727.52,13.657,33.728611,-93.665809,2017
AR,05059,66859,Hot Spring County,1593376791,18038347,615.206,6.965,34.315177,-92.944147,2017
AR,05061,66872,Howard County,1524380220,17475726,588.567,6.747000000000001,34.083064,-93.990931,2017
AR,05063,69163,Independence County,1978631574,19593589,763.954,7.565,35.737499,-91.559942,2017
AR,05065,66860,Izard County,1503683620,8913818,580.576,3.4419999999999997,36.094879,-91.913625,2017
AR,05067,66861,Jackson County,1641853230,19623381,633.923,7.577000000000001,35.596467,-91.22320500000001,2017
AR,05069,66862,Jefferson County,2253166949,113500176,869.953,43.823,34.277628,-91.930701,2017
AR,05071,66863,Johnson County,1709103300,59195663,659.8889999999999,22.855999999999998,35.573359,-93.46632199999999,2017
AR,05073,66864,Lafayette County,1368278178,43469442,528.295,16.784000000000002,33.240629,-93.611514,2017
AR,05075,66865,Lawrence County,1521880659,12286159,587.601,4.744,36.041098,-91.101153,2017
AR,05077,66866,Lee County,1560781749,43720910,602.621,16.881,34.779858000000004,-90.77934499999999,2017
AR,05079,66873,Lincoln County,1454438336,27514921,561.562,10.624,33.957675,-91.727626,2017
AR,05081,66874,Little River County,1378586566,84150136,532.275,32.491,33.699496999999994,-94.229774,2017
AR,05083,82850,Logan County,1834026181,60685645,708.1210000000001,23.430999999999997,35.218654,-93.72091,2017
AR,05085,69164,Lonoke County,1996628025,82740471,770.9019999999999,31.945999999999998,34.755114,-91.894132,2017
AR,05087,69165,Madison County,2160705134,7320899,834.253,2.827,36.012545,-93.724053,2017
AR,05089,69898,Marion County,1546109507,112285682,596.956,43.354,36.266664,-92.678577,2017
AR,05091,69166,Miller County,1620232433,31271179,625.575,12.074000000000002,33.305505,-93.90150200000001,2017
AR,05093,69899,Mississippi County,2332480068,49826375,900.576,19.238,35.766944,-90.052207,2017
AR,05095,69167,Monroe County,1572480973,36694917,607.138,14.168,34.679512,-91.20331,2017
AR,05097,69168,Montgomery County,2019824136,52913372,779.8580000000001,20.43,34.545581,-93.663329,2017
AR,05099,69169,Nevada County,1600192985,7254365,617.8380000000001,2.801,33.666699,-93.305072,2017
AR,05101,69900,Newton County,2126136365,5930177,820.9060000000001,2.29,35.910742,-93.215899,2017
AR,05103,69170,Ouachita County,1897898732,18050431,732.783,6.968999999999999,33.591167999999996,-92.878413,2017
AR,05105,69171,Perry County,1428543051,23226441,551.564,8.968,34.946363,-92.926877,2017
AR,05107,69172,Phillips County,1801429477,82378714,695.5360000000001,31.807,34.423687,-90.855593,2017
AR,05109,69173,Pike County,1555599952,34989238,600.621,13.509,34.158190999999995,-93.658659,2017
AR,05111,69174,Poinsett County,1964147526,13521720,758.362,5.221,35.568870000000004,-90.681104,2017
AR,05113,69175,Polk County,2221382755,12372286,857.681,4.777,34.490915,-94.230884,2017
AR,05115,69901,Pope County,2104418088,47279033,812.52,18.255,35.456557000000004,-93.026818,2017
AR,05117,69176,Prairie County,1678019592,71807768,647.887,27.725,34.831115999999994,-91.55362,2017
AR,05119,69177,Pulaski County,1965575733,126242806,758.913,48.743,34.770311,-92.312996,2017
AR,05121,69178,Randolph County,1689288878,9852495,652.238,3.804,36.341297999999995,-91.028441,2017
AR,05123,83331,St. Francis County,1644132565,20028723,634.803,7.733,35.014026,-90.742138,2017
AR,05125,67102,Saline County,1873978476,17979687,723.547,6.942,34.648525,-92.674463,2017
AR,05127,69179,Scott County,2311063525,14887193,892.307,5.747999999999999,34.858869,-94.063641,2017
AR,05129,69180,Searcy County,1725176973,6256687,666.095,2.416,35.896387,-92.695888,2017
AR,05131,69181,Sebastian County,1377601663,39693809,531.895,15.325999999999999,35.196981,-94.274989,2017
AR,05133,69182,Sevier County,1463680831,41831844,565.13,16.151,33.994877,-94.243279,2017
AR,05135,69183,Sharp County,1565460785,5201389,604.428,2.008,36.173398999999996,-91.471069,2017
AR,05137,69902,Stone County,1570579424,7841928,606.404,3.028,35.857017,-92.140508,2017
AR,05139,69903,Union County,2691555882,41400824,1039.2160000000001,15.985,33.168219,-92.598145,2017
AR,05141,69904,Van Buren County,1838200422,37692771,709.7330000000001,14.552999999999999,35.582953,-92.515976,2017
AR,05143,69905,Washington County,2439678769,27051804,941.965,10.445,35.971209,-94.218417,2017
AR,05145,69906,White County,2680852086,18293044,1035.083,7.063,35.255117999999996,-91.753034,2017
AR,05147,69907,Woodruff County,1519723278,18703959,586.768,7.222,35.192777,-91.244535,2017
AR,05149,69908,Yell County,2409046726,48482972,930.138,18.719,34.997713,-93.408303,2017
CA,06001,1675839,Alameda County,1909616630,216916717,737.307,83.75200000000001,37.647139,-121.91248799999998,2017
CA,06003,1675840,Alpine County,1912292631,12557304,738.34,4.848,38.621783,-119.79835200000001,2017
CA,06005,1675841,Amador County,1539933576,29470568,594.572,11.379000000000001,38.44355,-120.653856,2017
CA,06007,1675842,Butte County,4238438196,105310997,1636.47,40.661,39.665959,-121.601919,2017
CA,06009,1675885,Calaveras County,2641829199,43797662,1020.0160000000001,16.91,38.1839,-120.56144099999999,2017
CA,06011,1675902,Colusa County,2980332860,14608869,1150.713,5.641,39.177739,-122.237563,2017
CA,06013,1675903,Contra Costa County,1857310903,225193562,717.112,86.948,37.919478999999995,-121.95154299999999,2017
CA,06015,1682074,Del Norte County,2606117992,578742645,1006.2280000000001,223.454,41.763958,-124.00361399999998,2017
CA,06017,277273,El Dorado County,4423290535,203328338,1707.842,78.506,38.785532,-120.534398,2017
CA,06019,277274,Fresno County,15431410219,137339029,5958.101,53.027,36.761006,-119.655019,2017
CA,06021,277275,Glenn County,3403149421,33704225,1313.963,13.013,39.602546000000004,-122.4017,2017
CA,06023,1681908,Humboldt County,9241251740,1254039383,3568.067,484.18699999999995,40.706655,-123.926176,2017
CA,06025,277277,Imperial County,10817291631,790230304,4176.58,305.11,33.040814000000005,-115.3554,2017
CA,06027,1804637,Inyo County,26368508430,119088140,10180.938,45.98,36.561977,-117.403927,2017
CA,06029,2054176,Kern County,21062393794,78770534,8132.236,30.413,35.346629,-118.729506,2017
CA,06031,277280,Kings County,3598593366,5453080,1389.425,2.105,36.072478000000004,-119.81553000000001,2017
CA,06033,277281,Lake County,3254348631,188852161,1256.511,72.916,39.094802,-122.746757,2017
CA,06035,1693324,Lassen County,11761615611,463426050,4541.185,178.93,40.721086,-120.629952,2017
CA,06037,277283,Los Angeles County,10510588451,1794793532,4058.1609999999996,692.9739999999999,34.196397999999995,-118.26186200000001,2017
CA,06039,277284,Madera County,5534850492,42012923,2137.018,16.221,37.209821000000005,-119.749802,2017
CA,06041,277285,Marin County,1347976832,797029137,520.457,307.735,38.051817,-122.745974,2017
CA,06043,277286,Mariposa County,3752472156,36225644,1448.838,13.987,37.570029999999996,-119.912861,2017
CA,06045,277287,Mendocino County,9081426673,962946204,3506.3590000000004,371.796,39.432388,-123.442881,2017
CA,06047,277288,Merced County,5012175320,112509475,1935.2120000000002,43.44,37.194806,-120.722802,2017
CA,06049,277289,Modoc County,10140960164,745420669,3915.447,287.809,41.592918,-120.71837,2017
CA,06051,277290,Mono County,7896838493,214695673,3048.987,82.89399999999999,37.915836,-118.87516699999999,2017
CA,06053,277291,Monterey County,8496680819,1270736099,3280.587,490.634,36.240107,-121.315572,2017
CA,06055,277292,Napa County,1938165958,104249021,748.33,40.251,38.5071,-122.32590400000001,2017
CA,06057,1682927,Nevada County,2480587331,41531993,957.76,16.035999999999998,39.297508,-120.77134299999999,2017
CA,06059,277294,Orange County,2048392529,406915886,790.8889999999999,157.111,33.675686999999996,-117.777207,2017
CA,06061,277295,Placer County,3644244131,246575767,1407.0510000000002,95.20299999999999,39.062032,-120.722718,2017
CA,06063,277296,Plumas County,6612400919,156387635,2553.062,60.382,39.992295,-120.824371,2017
CA,06065,277297,Riverside County,18664542308,250588224,7206.42,96.75299999999999,33.729828000000005,-116.00223899999999,2017
CA,06067,277298,Sacramento County,2499039655,76217822,964.885,29.428,38.450016,-121.340441,2017
CA,06069,277299,San Benito County,3596588882,4721397,1388.651,1.8230000000000002,36.610702,-121.085296,2017
CA,06071,277300,San Bernardino County,51948123813,123845007,20057.284,47.817,34.85722,-116.181197,2017
CA,06073,277301,San Diego County,10898787530,822557348,4208.045999999999,317.591,33.023604,-116.776117,2017
CA,06075,277302,San Francisco County,121485107,479107241,46.906000000000006,184.984,37.727239000000004,-123.032229,2017
CA,06077,277303,San Joaquin County,3606190671,89046837,1392.358,34.381,37.934982,-121.272244,2017
CA,06079,277304,San Luis Obispo County,8548552397,815578711,3300.615,314.897,35.385224,-120.447544,2017
CA,06081,277305,San Mateo County,1161757245,757313941,448.55699999999996,292.401,37.414671999999996,-122.371546,2017
CA,06083,277306,Santa Barbara County,7084000622,2729814515,2735.1479999999997,1053.987,34.537057,-120.039973,2017
CA,06085,277307,Santa Clara County,3344209919,33276429,1291.2069999999999,12.847999999999999,37.220777000000005,-121.69062199999999,2017
CA,06087,277308,Santa Cruz County,1152967426,419570389,445.163,161.997,37.012488,-122.007205,2017
CA,06089,1682610,Shasta County,9778230094,186479466,3775.3959999999997,72.0,40.760514,-122.04355600000001,2017
CA,06091,277310,Sierra County,2468694586,23299110,953.168,8.996,39.576925,-120.521993,2017
CA,06093,277311,Siskiyou County,16261933292,179149824,6278.768,69.17,41.587986,-122.53328700000002,2017
CA,06095,277312,Solano County,2128347201,218679972,821.7589999999999,84.43299999999999,38.267226,-121.939594,2017
CA,06097,1657246,Sonoma County,4081450561,497495823,1575.8570000000002,192.084,38.525182,-122.92611000000001,2017
CA,06099,277314,Stanislaus County,3874634688,46384540,1496.005,17.909000000000002,37.562315999999996,-121.002831,2017
CA,06101,277315,Sutter County,1560275634,15717389,602.4259999999999,6.069,39.036190000000005,-121.70393999999999,2017
CA,06103,1692767,Tehama County,7638228772,33767784,2949.137,13.038,40.126157,-122.232274,2017
CA,06105,277317,Trinity County,8234265086,73407949,3179.268,28.343000000000004,40.647803,-123.114476,2017
CA,06107,277318,Tulare County,12494838453,37259234,4824.284000000001,14.386,36.228834,-118.78105500000001,2017
CA,06109,277319,Tuolumne County,5752079368,138722711,2220.89,53.56100000000001,38.021434,-119.96473300000001,2017
CA,06111,277320,Ventura County,4773302741,946030569,1842.983,365.264,34.358740999999995,-119.13314299999999,2017
CA,06113,277321,Yolo County,2628256658,22688556,1014.7760000000001,8.76,38.679595,-121.902441,2017
CA,06115,277322,Yuba County,1636913850,31057914,632.016,11.992,39.266247,-121.340781,2017
CO,08001,198116,Adams County,3023220812,41815517,1167.272,16.145,39.874325,-104.331872,2017
CO,08003,198117,Alamosa County,1871465873,1847609,722.577,0.713,37.568442,-105.78804099999999,2017
CO,08005,198118,Arapahoe County,2066634438,19499590,797.932,7.529,39.644554,-104.33170600000001,2017
CO,08007,198119,Archuleta County,3496731609,13720776,1350.096,5.297999999999999,37.202395,-107.05086299999999,2017
CO,08009,198120,Baca County,6617400584,6142193,2554.993,2.372,37.306693,-102.537758,2017
CO,08011,198121,Bent County,3918303427,73093229,1512.865,28.221,37.931891,-103.077584,2017
CO,08013,198122,Boulder County,1881281634,36521204,726.367,14.100999999999999,40.09497,-105.397691,2017
CO,08014,1945881,Broomfield County,85478932,1411395,33.004,0.545,39.95321,-105.05199499999999,2017
CO,08015,198123,Chaffee County,2624715691,3999975,1013.408,1.544,38.738223,-106.31668300000001,2017
CO,08017,198124,Cheyenne County,4605714032,8166134,1778.276,3.153,38.835386,-102.604585,2017
CO,08019,198125,Clear Creek County,1023560263,3274894,395.199,1.264,39.669732,-105.69256999999999,2017
CO,08021,198126,Conejos County,3334423639,9235291,1287.428,3.5660000000000003,37.213406,-106.176447,2017
CO,08023,198127,Costilla County,3179452304,8828906,1227.593,3.409,37.277547,-105.42894,2017
CO,08025,198128,Crowley County,2039427875,33422982,787.428,12.905,38.30618,-103.772736,2017
CO,08027,198129,Custer County,1913031958,3364151,738.6260000000001,1.2990000000000002,38.101994,-105.373515,2017
CO,08029,198130,Delta County,2958099789,16777978,1142.129,6.478,38.861756,-107.86475700000001,2017
CO,08031,198131,Denver County,397057845,4236701,153.305,1.636,39.76185,-104.881105,2017
CO,08033,198132,Dolores County,2763958520,2716141,1067.17,1.0490000000000002,37.747602,-108.530383,2017
CO,08035,198133,Douglas County,2176069189,6950848,840.185,2.6839999999999997,39.325414,-104.925987,2017
CO,08037,198134,Eagle County,4362804330,18920534,1684.4879999999998,7.305,39.626992,-106.69516899999999,2017
CO,08039,198136,Elbert County,4793658887,442148,1850.842,0.171,39.310582000000004,-104.117729,2017
CO,08041,198135,El Paso County,5508502469,7099036,2126.845,2.741,38.827383000000005,-104.527472,2017
CO,08043,198137,Fremont County,3970664546,2235374,1533.082,0.863,38.45517,-105.424958,2017
CO,08045,198138,Garfield County,7634095739,21408198,2947.5409999999997,8.266,39.599352,-107.90978,2017
CO,08047,198139,Gilpin County,388228996,942056,149.89600000000002,0.364,39.861156,-105.528878,2017
CO,08049,198140,Grand County,4782260517,59902382,1846.441,23.128,40.123205,-106.09593500000001,2017
CO,08051,198141,Gunnison County,8389338065,53067068,3239.1420000000003,20.489,38.67264,-107.066506,2017
CO,08053,198142,Hinsdale County,2893614470,15324686,1117.231,5.917000000000001,37.821165,-107.33826100000002,2017
CO,08055,198143,Huerfano County,4120756337,5792101,1591.033,2.2359999999999998,37.687815,-104.959928,2017
CO,08057,198144,Jackson County,4179530271,18750017,1613.726,7.239,40.663432,-106.32924799999999,2017
CO,08059,198145,Jefferson County,1979380402,25428019,764.243,9.818,39.579511,-105.24546200000002,2017
CO,08061,198146,Kiowa County,4578603605,47032919,1767.809,18.16,38.387663,-102.756849,2017
CO,08063,198147,Kit Carson County,5596501950,2251930,2160.822,0.8690000000000001,39.30534,-102.603023,2017
CO,08065,198149,Lake County,976215870,18111565,376.91900000000004,6.992999999999999,39.205341,-106.35007900000001,2017
CO,08067,198148,La Plata County,4376522002,25375721,1689.785,9.798,37.287366999999996,-107.83971799999999,2017
CO,08069,198150,Larimer County,6723022936,99012625,2595.774,38.229,40.658093,-105.486764,2017
CO,08071,198151,Las Animas County,12361852569,6929970,4772.938,2.676,37.318831,-104.04411,2017
CO,08073,198152,Lincoln County,6676158689,22780366,2577.679,8.796,38.99374,-103.50755500000001,2017
CO,08075,198153,Logan County,4761948002,16363553,1838.598,6.318,40.728091,-103.090464,2017
CO,08077,198154,Mesa County,8621911419,31428360,3328.9390000000003,12.135,39.019421,-108.46189299999999,2017
CO,08079,198155,Mineral County,2268209080,5222161,875.76,2.016,37.549067,-107.00323600000002,2017
CO,08081,198156,Moffat County,12284943876,19803412,4743.244000000001,7.646,40.616358,-108.211099,2017
CO,08083,198157,Montezuma County,5255937110,27261088,2029.329,10.526,37.338025,-108.595786,2017
CO,08085,198158,Montrose County,5804023642,4923261,2240.946,1.901,38.407507,-108.266282,2017
CO,08087,198159,Morgan County,3316441507,34663099,1280.485,13.383,40.263166999999996,-103.812278,2017
CO,08089,198160,Otero County,3268891492,19625371,1262.126,7.577000000000001,37.884170000000005,-103.72126,2017
CO,08091,198161,Ouray County,1402719352,1599543,541.5930000000001,0.618,38.154731,-107.78848,2017
CO,08093,198162,Park County,5682181421,43520913,2193.903,16.804000000000002,39.118914000000004,-105.717648,2017
CO,08095,198163,Phillips County,1781724973,301808,687.928,0.11699999999999999,40.594712,-102.345105,2017
CO,08097,198164,Pitkin County,2514104933,6472574,970.701,2.499,39.217332,-106.915783,2017
CO,08099,198165,Prowers County,4243428647,15345957,1638.3970000000002,5.925,37.958181,-102.392161,2017
CO,08101,198166,Pueblo County,6180089507,30094812,2386.146,11.62,38.170658,-104.489892,2017
CO,08103,198167,Rio Blanco County,8342275028,4868111,3220.9709999999995,1.88,39.972621999999994,-108.20071599999999,2017
CO,08105,198168,Rio Grande County,2361956102,984295,911.956,0.38,37.485853000000006,-106.453128,2017
CO,08107,198169,Routt County,6117602774,15831744,2362.02,6.1129999999999995,40.483664000000005,-106.987702,2017
CO,08109,198170,Saguache County,8206547707,4454510,3168.566,1.72,38.031651000000004,-106.23466599999999,2017
CO,08111,198171,San Juan County,1003660601,2035929,387.51599999999996,0.7859999999999999,37.781074,-107.670257,2017
CO,08113,198172,San Miguel County,3332606125,5204095,1286.726,2.009,38.009374,-108.42732600000001,2017
CO,08115,198173,Sedgwick County,1419419128,3530746,548.0409999999999,1.3630000000000002,40.871567999999996,-102.355358,2017
CO,08117,198174,Summit County,1575590697,28283469,608.339,10.92,39.621023,-106.137555,2017
CO,08119,198175,Teller County,1442734233,4944578,557.043,1.909,38.870022999999996,-105.187339,2017
CO,08121,198176,Washington County,6521806786,15207400,2518.084,5.872000000000001,39.965790000000005,-103.209744,2017
CO,08123,198177,Weld County,10323705895,79558079,3986.005,30.718000000000004,40.555960999999996,-104.383666,2017
CO,08125,198178,Yuma County,6123763472,11134666,2364.3979999999997,4.2989999999999995,40.000631,-102.42264899999999,2017
CT,09001,212794,Fairfield County,1618664433,549280551,624.97,212.078,41.227413,-73.36706099999999,2017
CT,09003,212338,Hartford County,1903983151,40128067,735.132,15.494000000000002,41.806053000000006,-72.732916,2017
CT,09005,212796,Litchfield County,2384058125,62393362,920.49,24.09,41.791883,-73.235404,2017
CT,09007,212797,Middlesex County,956493768,180679144,369.30400000000003,69.76100000000001,41.433003,-72.52278000000001,2017
CT,09009,212798,New Haven County,1565653728,667092277,604.502,257.566,41.349717,-72.900204,2017
CT,09011,212799,New London County,1722708285,276666169,665.1410000000001,106.821,41.472652000000004,-72.108634,2017
CT,09013,212668,Tolland County,1062807475,17549693,410.352,6.776,41.858081,-72.340978,2017
CT,09015,212801,Windham County,1328250338,21706060,512.84,8.381,41.824999,-71.990702,2017
DE,10001,217271,Kent County,1518568163,549099845,586.322,212.00900000000001,39.097088,-75.50298199999999,2017
DE,10003,217270,New Castle County,1104150372,175375756,426.315,67.71300000000001,39.575915,-75.644132,2017
DE,10005,217269,Sussex County,2424522544,674194633,936.113,260.308,38.673227000000004,-75.337024,2017
DC,11001,1702382,District of Columbia,158351639,18675956,61.14,7.211,38.904103000000006,-77.017229,2017
FL,12001,308548,Alachua County,2266400894,242801104,875.062,93.74600000000001,29.67574,-82.357221,2017
FL,12003,306920,Baker County,1515738965,9686120,585.23,3.74,30.324441999999998,-82.302284,2017
FL,12005,295738,Bay County,1964404472,711449254,758.461,274.692,30.238263,-85.63150999999999,2017
FL,12007,303634,Bradford County,761362376,16904945,293.964,6.527,29.952385999999997,-82.166599,2017
FL,12009,295749,Brevard County,2629333877,1403340249,1015.192,541.8330000000001,28.298303999999998,-80.700331,2017
FL,12011,295753,Broward County,3120024303,306053086,1204.6480000000001,118.16799999999999,26.193535,-80.476683,2017
FL,12013,306919,Calhoun County,1469389207,18074798,567.3340000000001,6.979,30.388801,-85.19791500000001,2017
FL,12015,295742,Charlotte County,1764104254,458735963,681.1239999999999,177.11900000000003,26.868933000000002,-81.941077,2017
FL,12017,295752,Citrus County,1507111917,495578435,581.899,191.34400000000002,28.84364,-82.52481,2017
FL,12019,295726,Clay County,1566439483,100339826,604.806,38.741,29.986584000000004,-81.865036,2017
FL,12021,295754,Collier County,5176983078,792880431,1998.844,306.133,26.118786,-81.40095500000001,2017
FL,12023,306909,Columbia County,2065628007,9773963,797.543,3.7739999999999996,30.221333,-82.623168,2017
FL,12027,294452,DeSoto County,1649978043,6247257,637.06,2.412,27.190580999999998,-81.806253,2017
FL,12029,295725,Dixie County,1826212966,410630395,705.105,158.545,29.580899,-83.195666,2017
FL,12031,293656,Duval County,1975764931,403035529,762.847,155.613,30.335245,-81.648113,2017
FL,12033,295737,Escambia County,1701448275,564025766,656.933,217.77200000000002,30.611638,-87.3389,2017
FL,12035,308547,Flagler County,1257367545,221045256,485.472,85.346,29.474912,-81.286305,2017
FL,12037,306911,Franklin County,1411918808,1275529258,545.145,492.485,29.810176000000002,-84.799174,2017
FL,12039,306918,Gadsden County,1337193230,31687293,516.293,12.235,30.578687,-84.612607,2017
FL,12041,303633,Gilchrist County,905705520,14362154,349.695,5.545,29.723456,-82.795801,2017
FL,12043,295743,Glades County,2089270942,466758592,806.672,180.217,26.95481,-81.19082,2017
FL,12045,306917,Gulf County,1433785086,494266609,553.5880000000001,190.83700000000002,29.907257,-85.256537,2017
FL,12047,295736,Hamilton County,1330689579,13659798,513.7819999999999,5.274,30.491226,-82.95106899999999,2017
FL,12049,295746,Hardee County,1651867901,1439673,637.79,0.556,27.492846000000004,-81.82158000000001,2017
FL,12051,307626,Hendry County,2994620710,87035817,1156.23,33.605,26.539966999999997,-81.152114,2017
FL,12053,295751,Hernando County,1224692722,300863005,472.85699999999997,116.164,28.573043,-82.466227,2017
FL,12055,295756,Highlands County,2632952088,231653040,1016.5889999999999,89.44200000000001,27.342627,-81.340921,2017
FL,12057,295757,Hillsborough County,2642602901,635590801,1020.315,245.403,27.906607,-82.349719,2017
FL,12059,295735,Holmes County,1239988859,26637585,478.76199999999994,10.285,30.866221999999997,-85.81295899999999,2017
FL,12061,307624,Indian River County,1302197699,295585012,502.781,114.126,27.700528000000002,-80.574789,2017
FL,12063,295734,Jackson County,2378066857,94243008,918.177,36.387,30.789248999999998,-85.208814,2017
FL,12065,295733,Jefferson County,1549056458,99567329,598.094,38.443000000000005,30.424558,-83.89085899999999,2017
FL,12067,295732,Lafayette County,1407329163,11745118,543.373,4.535,29.990066,-83.17851,2017
FL,12069,308551,Lake County,2436872973,559601970,940.882,216.06400000000002,28.764113000000002,-81.712282,2017
FL,12071,295758,Lee County,2030703925,1109326687,784.059,428.31300000000005,26.559034999999998,-81.891994,2017
FL,12073,306916,Leon County,1727201409,90424118,666.8760000000001,34.913000000000004,30.45931,-84.2778,2017
FL,12075,295724,Levy County,2896206276,762912636,1118.232,294.562,29.284457,-82.783462,2017
FL,12077,308549,Liberty County,2164099093,19582444,835.563,7.561,30.259849,-84.86858000000001,2017
FL,12079,295731,Madison County,1802951600,50683945,696.1239999999999,19.569000000000003,30.447233,-83.470416,2017
FL,12081,295744,Manatee County,1924699210,387514585,743.1310000000001,149.62,27.481682,-82.368767,2017
FL,12083,306922,Marion County,4114226894,192048864,1588.5120000000002,74.15,29.202804999999998,-82.0431,2017
FL,12085,308550,Martin County,1408247995,542262212,543.7280000000001,209.36900000000003,27.083603999999998,-80.398201,2017
FL,12086,295755,Miami-Dade County,4917514967,1379206478,1898.6629999999998,532.515,25.61058,-80.499137,2017
FL,12087,295759,Monroe County,2545998106,7133386423,983.015,2754.216,24.535414000000003,-82.00692,2017
FL,12089,295730,Nassau County,1679966574,200159166,648.639,77.282,30.605926,-81.76492900000001,2017
FL,12091,306915,Okaloosa County,2409367483,393201898,930.262,151.816,30.665851,-86.594187,2017
FL,12093,295760,Okeechobee County,1991433070,318578493,768.8969999999999,123.00399999999999,27.385592,-80.887388,2017
FL,12095,295750,Orange County,2339138134,259141175,903.1460000000001,100.055,28.514435,-81.323295,2017
FL,12097,295748,Osceola County,3438742026,461876563,1327.7060000000001,178.332,28.059027,-81.139312,2017
FL,12099,295761,Palm Beach County,5092730552,1079713751,1966.3139999999999,416.88,26.649124,-80.448374,2017
FL,12101,295739,Pasco County,1936400029,312907704,747.648,120.814,28.307465000000004,-82.464584,2017
FL,12103,295745,Pinellas County,709243774,865801424,273.841,334.288,27.903121999999996,-82.739518,2017
FL,12105,295747,Polk County,4653579490,553462009,1796.757,213.69299999999998,27.953115000000004,-81.69278299999999,2017
FL,12107,306910,Putnam County,1885167090,256548320,727.867,99.054,29.606006,-81.740894,2017
FL,12109,308371,St. Johns County,1555793861,571962027,600.695,220.83599999999998,29.890644,-81.383948,2017
FL,12111,308372,St. Lucie County,1480655532,300844721,571.684,116.15700000000001,27.379812,-80.443537,2017
FL,12113,306914,Santa Rosa County,2621316069,418753385,1012.096,161.68200000000002,30.701838000000002,-87.012762,2017
FL,12115,295741,Sarasota County,1439588493,438890089,555.828,169.456,27.184386,-82.365835,2017
FL,12117,303665,Seminole County,801709341,92719341,309.54200000000003,35.799,28.690092,-81.131989,2017
FL,12119,295740,Sumter County,1418509811,83231177,547.69,32.135999999999996,28.714309999999998,-82.074703,2017
FL,12121,295729,Suwannee County,1783341106,9594316,688.552,3.7039999999999997,30.189244,-82.992754,2017
FL,12123,295728,Taylor County,2702180626,489194665,1043.318,188.87900000000002,30.009908000000003,-83.609483,2017
FL,12125,306913,Union County,630806849,16049467,243.55599999999998,6.197,30.05428,-82.366918,2017
FL,12127,306921,Volusia County,2852082296,857948738,1101.195,331.256,29.057769,-81.161792,2017
FL,12129,306912,Wakulla County,1570625279,334901690,606.422,129.306,30.140358000000003,-84.375112,2017
FL,12131,295727,Walton County,2687686788,522848570,1037.722,201.873,30.631210999999997,-86.176614,2017
FL,12133,295762,Washington County,1513019369,82294771,584.18,31.774,30.602217,-85.662797,2017
GA,13001,349113,Appling County,1313488286,13263005,507.14099999999996,5.121,31.739712,-82.290103,2017
GA,13003,345784,Atkinson County,878787518,13550957,339.30199999999996,5.232,31.296806,-82.878151,2017
GA,13005,344784,Bacon County,735650672,4625861,284.036,1.786,31.550209999999996,-82.451433,2017
GA,13007,342832,Baker County,885665382,18598655,341.957,7.181,31.31958,-84.454881,2017
GA,13009,345255,Baldwin County,670027550,24802965,258.699,9.576,33.059490000000004,-83.25545699999999,2017
GA,13011,349230,Banks County,601117836,4651151,232.093,1.796,34.351921999999995,-83.498441,2017
GA,13013,356976,Barrow County,416283948,5707989,160.72799999999998,2.204,33.992009,-83.712303,2017
GA,13015,351604,Bartow County,1190154332,27368202,459.52099999999996,10.567,34.240916999999996,-84.838188,2017
GA,13017,351606,Ben Hill County,647813382,9803106,250.122,3.785,31.740775,-83.14719000000001,2017
GA,13019,326638,Berrien County,1170501546,15409110,451.93300000000005,5.949,31.288652000000003,-83.22787,2017
GA,13021,1672039,Bibb County,645699773,14503560,249.30599999999998,5.6,32.808845,-83.694194,2017
GA,13023,347451,Bleckley County,559100209,8447343,215.87,3.262,32.435403,-83.331717,2017
GA,13025,351605,Brantley County,1145708458,12540408,442.361,4.842,31.197334,-81.982978,2017
GA,13027,345518,Brooks County,1277105513,12191505,493.093,4.707,30.822934000000004,-83.581905,2017
GA,13029,350496,Bryan County,1130182689,46852821,436.366,18.09,32.017969,-81.43854300000001,2017
GA,13031,350302,Bulloch County,1743101866,40429683,673.015,15.61,32.391711,-81.74402099999999,2017
GA,13033,347944,Burke County,2141993539,20601185,827.028,7.954,33.060181,-82.000164,2017
GA,13035,352295,Butts County,475759863,11264566,183.692,4.349,33.290355,-83.958221,2017
GA,13037,344074,Calhoun County,726147254,8315719,280.367,3.2110000000000003,31.521278999999996,-84.62629,2017
GA,13039,1671316,Camden County,1587815888,437170621,613.059,168.793,30.913346999999998,-81.64200100000001,2017
GA,13043,342852,Candler County,629508737,15030369,243.055,5.803,32.40395,-82.07126600000001,2017
GA,13045,326650,Carroll County,1292475855,12301426,499.028,4.75,33.582237,-85.080527,2017
GA,13047,353230,Catoosa County,419999268,771158,162.16299999999998,0.298,34.900218,-85.139386,2017
GA,13049,357747,Charlton County,2003702672,22676200,773.6339999999999,8.755,30.779904,-82.13964399999999,2017
GA,13051,1694477,Chatham County,1112416679,525134462,429.506,202.75599999999997,31.98041,-81.085196,2017
GA,13053,351012,Chattahoochee County,644222675,6292704,248.736,2.43,32.347445,-84.788021,2017
GA,13055,352213,Chattooga County,811512406,570806,313.327,0.22,34.474178,-85.34528900000001,2017
GA,13057,1685718,Cherokee County,1090598900,34469349,421.083,13.309000000000001,34.244316999999995,-84.47505699999999,2017
GA,13059,1672699,Clarke County,308764509,4715185,119.215,1.821,33.952185,-83.367152,2017
GA,13061,344805,Clay County,506035793,56605066,195.382,21.855,31.619831,-84.992583,2017
GA,13063,1672399,Clayton County,366881210,7038080,141.654,2.717,33.542685999999996,-84.35557299999999,2017
GA,13065,351285,Clinch County,2072566890,61565560,800.2230000000001,23.771,30.917653,-82.702614,2017
GA,13067,1686112,Cobb County,879926969,12497709,339.74199999999996,4.825,33.93994,-84.574166,2017
GA,13069,347456,Coffee County,1490399436,70456631,575.446,27.203000000000003,31.549245000000003,-82.844938,2017
GA,13071,343936,Colquitt County,1416682032,25006488,546.984,9.655,31.189707000000002,-83.769773,2017
GA,13073,348865,Columbia County,751323672,45373097,290.08799999999997,17.519000000000002,33.547631,-82.252296,2017
GA,13075,343878,Cook County,588450813,15542061,227.202,6.001,31.152516,-83.429445,2017
GA,13077,326666,Coweta County,1141973686,12727950,440.91900000000004,4.914,33.352897,-84.76213800000001,2017
GA,13079,342918,Crawford County,841521994,3988980,324.913,1.54,32.709428,-83.979187,2017
GA,13081,351607,Crisp County,705921217,21739092,272.558,8.394,31.915149,-83.75353100000001,2017
GA,13083,347465,Dade County,450605326,467844,173.98,0.18100000000000002,34.852424,-85.506201,2017
GA,13085,351312,Dawson County,546042216,9272655,210.828,3.58,34.442842,-84.173284,2017
GA,13087,352234,Decatur County,1546667779,67329727,597.172,25.996,30.880654999999997,-84.584144,2017
GA,13089,1687424,DeKalb County,693144670,9191912,267.625,3.549,33.770661,-84.226343,2017
GA,13091,348116,Dodge County,1284379383,18687765,495.902,7.215,32.164349,-83.167866,2017
GA,13093,351608,Dooly County,1015119749,13841085,391.94,5.343999999999999,32.151995,-83.807167,2017
GA,13095,351259,Dougherty County,851140307,15396055,328.62699999999995,5.944,31.532588,-84.20904,2017
GA,13097,1686467,Douglas County,518261551,2517004,200.102,0.972,33.701242,-84.767314,2017
GA,13099,345041,Early County,1327612139,9717177,512.594,3.752,31.324191,-84.906723,2017
GA,13101,348092,Echols County,1074571647,15087403,414.894,5.825,30.7085,-82.83613199999999,2017
GA,13103,350219,Effingham County,1237281310,13464072,477.717,5.199,32.361711,-81.343337,2017
GA,13105,347828,Elbert County,909303700,59911773,351.084,23.131999999999998,34.116455,-82.84183399999999,2017
GA,13107,347508,Emanuel County,1762766490,24802077,680.6080000000001,9.576,32.5911,-82.299763,2017
GA,13109,345923,Evans County,473612756,10377268,182.863,4.007,32.153083,-81.890153,2017
GA,13111,351094,Fannin County,1002610853,13459979,387.11,5.197,34.866543,-84.31733100000001,2017
GA,13113,1687740,Fayette County,503420105,12825183,194.372,4.952,33.412717,-84.493941,2017
GA,13115,353665,Floyd County,1320436485,22382107,509.82300000000004,8.642000000000001,34.263692,-85.213685,2017
GA,13117,1673358,Forsyth County,580598432,59439960,224.17,22.95,34.225143,-84.12743499999999,2017
GA,13119,349324,Franklin County,677294070,12811302,261.505,4.946000000000001,34.375081,-83.228064,2017
GA,13121,1694833,Fulton County,1364081871,19876730,526.675,7.6739999999999995,33.790034000000006,-84.468182,2017
GA,13123,351260,Gilmer County,1103942496,12227724,426.235,4.721,34.690506,-84.454624,2017
GA,13125,345642,Glascock County,372284127,1847843,143.74,0.713,33.227491,-82.606913,2017
GA,13127,1671513,Glynn County,1086361034,429423812,419.44599999999997,165.801,31.212709999999998,-81.49645,2017
GA,13129,356672,Gordon County,921597971,5729801,355.83099999999996,2.2119999999999997,34.509667,-84.873862,2017
GA,13131,351261,Grady County,1177152222,14925882,454.501,5.763,30.875903000000005,-84.245008,2017
GA,13133,348672,Greene County,1003451710,48630003,387.435,18.776,33.57674,-83.166613,2017
GA,13135,1688166,Gwinnett County,1114851817,16349375,430.44699999999995,6.313,33.959146000000004,-84.023087,2017
GA,13137,351383,Habersham County,716858330,5814561,276.781,2.245,34.634392,-83.525875,2017
GA,13139,1686953,Hall County,1017805267,94061469,392.977,36.317,34.317569,-83.8185,2017
GA,13141,348209,Hancock County,1220058027,17479750,471.06699999999995,6.749,33.269220000000004,-83.000465,2017
GA,13143,350637,Haralson County,730804590,2616530,282.165,1.01,33.795165000000004,-85.220063,2017
GA,13145,326700,Harris County,1201447999,23502960,463.88199999999995,9.075,32.731549,-84.912432,2017
GA,13147,1687995,Hart County,601908709,63583341,232.398,24.55,34.348733,-82.96329,2017
GA,13149,347067,Heard County,766640653,13190449,296.002,5.093,33.291346999999995,-85.137886,2017
GA,13151,1671894,Henry County,825201574,20443113,318.612,7.893,33.452946999999995,-84.154021,2017
GA,13153,1671693,Houston County,972671487,11319233,375.551,4.37,32.458381,-83.662856,2017
GA,13155,352302,Irwin County,917793238,21758147,354.36199999999997,8.401,31.604306,-83.27703699999999,2017
GA,13157,349570,Jackson County,879710263,8907131,339.658,3.4389999999999996,34.130881,-83.562566,2017
GA,13159,346144,Jasper County,953536358,13732175,368.162,5.3020000000000005,33.318169,-83.69014200000001,2017
GA,13161,1687999,Jeff Davis County,856690612,11986249,330.77,4.628,31.811615000000003,-82.636825,2017
GA,13163,345714,Jefferson County,1363593760,8237192,526.487,3.18,33.058176,-82.420004,2017
GA,13165,342985,Jenkins County,899563041,13338830,347.32300000000004,5.15,32.794563000000004,-81.971524,2017
GA,13167,346664,Johnson County,784793323,9278537,303.01,3.582,32.694584000000006,-82.66396999999999,2017
GA,13169,345367,Jones County,1020296386,3827965,393.939,1.4780000000000002,33.020226,-83.562339,2017
GA,13171,326713,Lamar County,475262778,6046030,183.5,2.334,33.074459999999995,-84.146721,2017
GA,13173,348102,Lanier County,479903057,37546688,185.292,14.497,31.038196999999997,-83.063164,2017
GA,13175,346568,Laurens County,2090842776,28985734,807.279,11.190999999999999,32.39322,-82.926317,2017
GA,13177,343390,Lee County,921722888,15318763,355.879,5.915,31.818419,-84.146681,2017
GA,13179,357095,Liberty County,1336136727,224402177,515.885,86.64200000000001,31.807458,-81.457871,2017
GA,13181,1688000,Lincoln County,544880787,121516946,210.38,46.918,33.792151000000004,-82.448299,2017
GA,13183,326719,Long County,1037005778,8862741,400.39,3.4219999999999997,31.749563000000002,-81.74287,2017
GA,13185,326720,Lowndes County,1285022595,37361466,496.15,14.425,30.833145000000002,-83.26899499999999,2017
GA,13187,357196,Lumpkin County,732786481,3280165,282.93,1.266,34.56814,-83.998925,2017
GA,13189,348794,McDuffie County,666813913,23119020,257.45799999999997,8.926,33.479623,-82.47873299999999,2017
GA,13191,356886,McIntosh County,1099290158,387088216,424.43800000000005,149.45600000000002,31.488591999999997,-81.37246,2017
GA,13193,346957,Macon County,1037653519,13860062,400.64,5.351,32.362686,-84.051231,2017
GA,13195,1688004,Madison County,731184825,8484621,282.312,3.2760000000000002,34.128526,-83.203737,2017
GA,13197,344107,Marion County,947978209,3791374,366.01599999999996,1.464,32.359532,-84.529567,2017
GA,13199,346892,Meriwether County,1298162528,10832504,501.223,4.1819999999999995,33.029267,-84.667058,2017
GA,13201,344088,Miller County,731467676,3215444,282.421,1.2409999999999999,31.162931,-84.730398,2017
GA,13205,343645,Mitchell County,1326342585,4454719,512.104,1.72,31.228996999999996,-84.192038,2017
GA,13207,343073,Monroe County,1025872423,5643844,396.092,2.1790000000000003,33.017435,-83.922938,2017
GA,13209,352276,Montgomery County,620371304,13383238,239.52700000000002,5.167000000000001,32.172108,-82.533349,2017
GA,13211,346008,Morgan County,899632962,18830382,347.35,7.27,33.593474,-83.491049,2017
GA,13213,1688005,Murray County,892235146,5719645,344.494,2.208,34.797096999999994,-84.73799,2017
GA,13215,357428,Muscogee County,560544127,11859741,216.42700000000002,4.579,32.510197,-84.874946,2017
GA,13217,1673547,Newton County,708857834,14261429,273.692,5.506,33.544041,-83.855184,2017
GA,13219,356774,Oconee County,477396249,5305211,184.324,2.048,33.834125,-83.437728,2017
GA,13221,351262,Oglethorpe County,1137034765,7838679,439.01199999999994,3.0269999999999997,33.866806,-83.074081,2017
GA,13223,349912,Paulding County,808831878,5309332,312.29200000000003,2.05,33.921026,-84.867162,2017
GA,13225,343153,Peach County,389188297,2678495,150.266,1.034,32.571324,-83.831978,2017
GA,13227,1673011,Pickens County,601027940,1693768,232.058,0.654,34.456804,-84.49033299999999,2017
GA,13229,349086,Pierce County,881044511,7916649,340.173,3.057,31.353988,-82.210427,2017
GA,13231,346482,Pike County,559659548,8596853,216.08599999999998,3.319,33.090768,-84.386627,2017
GA,13233,343585,Polk County,803751977,4688357,310.33,1.81,33.996015,-85.188338,2017
GA,13235,347593,Pulaski County,645503546,5131020,249.23,1.9809999999999999,32.238803000000004,-83.48184499999999,2017
GA,13237,347246,Putnam County,892652833,41520809,344.655,16.031,33.321059999999996,-83.37179,2017
GA,13239,350547,Quitman County,391703077,24158294,151.237,9.328,31.862948,-85.004801,2017
GA,13241,351489,Rabun County,958635596,17839179,370.131,6.888,34.883949,-83.404859,2017
GA,13243,352242,Randolph County,1109126226,6830041,428.236,2.637,31.762651,-84.75231099999999,2017
GA,13245,358024,Richmond County,840026450,11024164,324.336,4.256,33.361487,-82.074998,2017
GA,13247,357592,Rockdale County,336212809,5918272,129.812,2.285,33.652081,-84.02637,2017
GA,13249,344129,Schley County,432287212,2373636,166.907,0.9159999999999999,32.263444,-84.32270799999999,2017
GA,13251,350204,Screven County,1670807253,27885165,645.102,10.767000000000001,32.744751,-81.61758499999999,2017
GA,13253,351263,Seminole County,609245346,55231610,235.231,21.325,30.933894,-84.867592,2017
GA,13255,353055,Spalding County,507343333,9593612,195.886,3.7039999999999997,33.262389,-84.286067,2017
GA,13257,350028,Stephens County,463974775,13095267,179.142,5.056,34.552914,-83.290216,2017
GA,13259,347360,Stewart County,1188153052,12598484,458.74800000000005,4.864,32.073225,-84.834912,2017
GA,13261,343504,Sumter County,1250167780,25799665,482.69199999999995,9.961,32.042196999999994,-84.204257,2017
GA,13263,326757,Talbot County,1013662791,8766849,391.37699999999995,3.385,32.704603000000006,-84.530029,2017
GA,13265,347654,Taliaferro County,504031039,1915743,194.607,0.74,33.559319,-82.875272,2017
GA,13267,347445,Tattnall County,1241979177,22837730,479.531,8.818,32.043768,-82.059208,2017
GA,13269,344156,Taylor County,975612265,7802363,376.686,3.013,32.554666999999995,-84.251426,2017
GA,13271,356958,Telfair County,1132612023,17365488,437.30400000000003,6.705,31.913639,-82.931062,2017
GA,13273,352238,Terrell County,868785319,5861795,335.44,2.263,31.777191,-84.43944599999999,2017
GA,13275,343835,Thomas County,1410520995,19717343,544.605,7.6129999999999995,30.864620000000002,-83.919812,2017
GA,13277,344090,Tift County,675662341,20498270,260.875,7.914,31.457003000000004,-83.525931,2017
GA,13279,345220,Toombs County,942770579,18094405,364.006,6.986000000000001,32.117812,-82.330626,2017
GA,13281,351252,Towns County,431313630,13975835,166.53099999999998,5.396,34.902529,-83.732264,2017
GA,13283,347505,Treutlen County,516529395,7805621,199.433,3.014,32.409586,-82.570882,2017
GA,13285,1673298,Troup County,1072272397,82763611,414.00699999999995,31.955,33.034482000000004,-85.02835999999999,2017
GA,13287,343238,Turner County,739164624,11881239,285.393,4.587,31.7248,-83.620319,2017
GA,13289,345456,Twiggs County,928304208,10914123,358.42,4.2139999999999995,32.665847,-83.42587900000001,2017
GA,13291,353193,Union County,834083256,18082753,322.041,6.982,34.833333,-83.989257,2017
GA,13293,346759,Upson County,837697011,10663282,323.437,4.117,32.881837,-84.292283,2017
GA,13295,354216,Walker County,1156145994,1672676,446.39,0.6459999999999999,34.735802,-85.305456,2017
GA,13297,351264,Walton County,845768028,8927725,326.553,3.447,33.783887,-83.731829,2017
GA,13299,357722,Ware County,2312599086,39076860,892.9,15.088,31.050881,-82.42150699999999,2017
GA,13301,347777,Warren County,736316130,6201954,284.293,2.395,33.419169000000004,-82.688012,2017
GA,13303,348428,Washington County,1757156969,15316016,678.442,5.914,32.971843,-82.798112,2017
GA,13305,350608,Wayne County,1662305031,18071707,641.82,6.978,31.547845000000002,-81.912376,2017
GA,13307,352287,Webster County,541613279,2965865,209.118,1.145,32.046690999999996,-84.553828,2017
GA,13309,351278,Wheeler County,765314385,12377029,295.49,4.779,32.105258,-82.73384899999999,2017
GA,13311,326781,White County,623386723,3928195,240.69099999999997,1.517,34.643776,-83.74341700000001,2017
GA,13313,353513,Whitfield County,752293512,1533754,290.462,0.5920000000000001,34.801726,-84.968541,2017
GA,13315,345499,Wilcox County,978282707,11390302,377.717,4.398,31.962716999999998,-83.438262,2017
GA,13317,351265,Wilkes County,1215973894,11924769,469.49,4.604,33.779030999999996,-82.74792099999999,2017
GA,13319,346824,Wilkinson County,1158541310,12003359,447.315,4.635,32.804266,-83.175512,2017
GA,13321,343365,Worth County,1478123917,10485470,570.707,4.048,31.551772999999997,-83.84996,2017
HI,15001,365280,Hawaii County,10433637860,2739470030,4028.45,1057.715,19.597764,-155.502443,2017
HI,15003,365281,Honolulu County,1555581074,4054908589,600.613,1565.609,21.461365,-158.201974,2017
HI,15005,1702380,Kalawao County,31057603,105764468,11.991,40.836,21.218764,-156.97401000000002,2017
HI,15007,365282,Kauai County,1605492340,1674244223,619.884,646.429,22.012038,-159.705965,2017
HI,15009,365283,Maui County,3008348865,3203294203,1161.53,1236.799,20.855930999999998,-156.60155,2017
ID,16001,395066,Ada County,2724902770,21961614,1052.0910000000001,8.479,43.451477000000004,-116.244376,2017
ID,16003,395067,Adams County,3529648932,17359848,1362.805,6.702999999999999,44.877004,-116.461624,2017
ID,16005,395091,Bannock County,2881317883,92094662,1112.483,35.558,42.692921000000005,-112.228982,2017
ID,16007,395090,Bear Lake County,2527122948,191364283,975.7280000000001,73.88600000000001,42.285892,-111.32751699999999,2017
ID,16009,395190,Benewah County,2012070462,18975652,776.865,7.327000000000001,47.218451,-116.633541,2017
ID,16011,400593,Bingham County,5422887230,68487087,2093.7889999999998,26.443,43.216357,-112.399206,2017
ID,16013,395696,Blaine County,6831709855,44656291,2637.738,17.242,43.394192,-113.955371,2017
ID,16015,395157,Boise County,4919826480,19104287,1899.556,7.376,43.987275,-115.71511000000001,2017
ID,16017,395158,Bonner County,4488460265,479480478,1733.004,185.128,48.324628000000004,-116.627452,2017
ID,16019,395407,Bonneville County,4832874977,88853019,1865.984,34.306,43.395171000000005,-111.62187800000001,2017
ID,16021,395159,Boundary County,3285990181,24160674,1268.728,9.328,48.773133,-116.52467299999999,2017
ID,16023,401703,Butte County,5792509562,5260331,2236.501,2.031,43.685101,-113.177631,2017
ID,16025,399408,Camas County,2782253889,11548052,1074.234,4.459,43.502733,-114.772066,2017
ID,16027,399406,Canyon County,1520439790,43128953,587.045,16.652,43.623051000000004,-116.708527,2017
ID,16029,395406,Caribou County,4569240963,89216874,1764.194,34.446999999999996,42.786072,-111.544273,2017
ID,16031,395698,Cassia County,6644895767,39160685,2565.609,15.12,42.282313,-113.626328,2017
ID,16033,399755,Clark County,4566524491,2476454,1763.145,0.956,44.290217999999996,-112.35461299999999,2017
ID,16035,395697,Clearwater County,6364399894,79605439,2457.3089999999997,30.736,46.67257,-115.6535,2017
ID,16037,399758,Custer County,12748200986,42566923,4922.108,16.435,44.273351,-114.25226699999999,2017
ID,16039,400252,Elmore County,7964192255,68555510,3074.992,26.469,43.394698,-115.471205,2017
ID,16041,395585,Franklin County,1717209197,12155421,663.018,4.6930000000000005,42.173609,-111.822965,2017
ID,16043,395408,Fremont County,4827632203,83441579,1863.9589999999998,32.217,44.218090999999994,-111.484429,2017
ID,16045,395442,Gem County,1449792319,12495804,559.768,4.825,44.061473,-116.398784,2017
ID,16047,395441,Gooding County,1888836285,12568998,729.284,4.853,42.973185,-114.82141999999999,2017
ID,16049,395699,Idaho County,21956596295,67553776,8477.49,26.083000000000002,45.849644,-115.46733700000001,2017
ID,16051,399751,Jefferson County,2832617277,31168379,1093.68,12.034,43.796965,-112.31858799999999,2017
ID,16053,395662,Jerome County,1547386409,13152108,597.4490000000001,5.078,42.691395,-114.26208600000001,2017
ID,16055,395661,Kootenai County,3205258021,185023431,1237.557,71.438,47.677113,-116.69491799999999,2017
ID,16057,395613,Latah County,2786482704,2370320,1075.867,0.915,46.81892,-116.730974,2017
ID,16059,399754,Lemhi County,11820055094,14109855,4563.749,5.4479999999999995,44.928506,-113.887042,2017
ID,16061,395622,Lewis County,1240137223,2345525,478.82,0.9059999999999999,46.236328,-116.42376000000002,2017
ID,16063,395624,Lincoln County,3111451190,11606076,1201.338,4.481,42.986181,-114.153899,2017
ID,16065,394803,Madison County,1215396379,10500827,469.267,4.053999999999999,43.788614,-111.656993,2017
ID,16067,394807,Minidoka County,1960659281,13928460,757.015,5.377999999999999,42.857211,-113.63983999999999,2017
ID,16069,399394,Nez Perce County,2197056674,21339031,848.288,8.238999999999999,46.333791,-116.76090900000001,2017
ID,16071,399759,Oneida County,3105269253,3995238,1198.951,1.5430000000000001,42.183895,-112.520449,2017
ID,16073,399760,Owyhee County,19860561623,74125616,7668.206,28.62,42.572851,-116.18968999999998,2017
ID,16075,394896,Payette County,1053857311,8870733,406.897,3.425,44.00243,-116.75023799999998,2017
ID,16077,394951,Power County,3635879902,99218111,1403.8210000000001,38.308,42.694126000000004,-112.844407,2017
ID,16079,1702379,Shoshone County,6830709342,14151673,2637.3520000000003,5.4639999999999995,47.347694,-115.88509199999999,2017
ID,16081,399297,Teton County,1163139958,2868476,449.091,1.1079999999999999,43.760994000000004,-111.21176499999999,2017
ID,16083,399334,Twin Falls County,4977213745,18063174,1921.713,6.974,42.352309000000005,-114.66563899999998,2017
ID,16085,399756,Valley County,9492623106,177058013,3665.1220000000003,68.362,44.855959999999996,-115.61806100000001,2017
ID,16087,399757,Washington County,3762870366,53228012,1452.852,20.551,44.448223,-116.79779199999999,2017
IL,17001,424202,Adams County,2214972287,41784365,855.206,16.133,39.986052,-91.19496099999999,2017
IL,17003,424203,Alexander County,609996941,44237191,235.521,17.08,37.183658,-89.34951600000001,2017
IL,17005,424204,Bond County,984918649,6426353,380.279,2.481,38.885923999999996,-89.436592,2017
IL,17007,424205,Boone County,727092582,3348032,280.732,1.2930000000000001,42.318983,-88.82429499999999,2017
IL,17009,424206,Brown County,791518279,4139308,305.607,1.598,39.962069,-90.750309,2017
IL,17011,424207,Bureau County,2250785990,11578416,869.033,4.47,41.401303999999996,-89.528377,2017
IL,17013,424208,Calhoun County,657402915,77057164,253.825,29.752,39.164262,-90.66629499999999,2017
IL,17015,424209,Carroll County,1152707885,55841450,445.06300000000005,21.561,42.0709,-89.924189,2017
IL,17017,424210,Cass County,973345745,20581547,375.811,7.947,39.969202,-90.245704,2017
IL,17019,424211,Champaign County,2579733580,6091992,996.041,2.352,40.13898,-88.196996,2017
IL,17021,424212,Christian County,1837278858,16221514,709.377,6.263,39.545524,-89.279593,2017
IL,17023,424213,Clark County,1298676804,8796711,501.42199999999997,3.3960000000000004,39.332364,-87.791687,2017
IL,17025,424214,Clay County,1212958827,3278251,468.32599999999996,1.266,38.746832,-88.482344,2017
IL,17027,424215,Clinton County,1227823898,75642557,474.065,29.206,38.606295,-89.42622800000001,2017
IL,17029,424216,Coles County,1316459192,4631825,508.288,1.788,39.51368,-88.220782,2017
IL,17031,1784766,Cook County,2447469694,1786452809,944.9730000000001,689.753,41.894294,-87.645455,2017
IL,17033,424218,Crawford County,1149004930,5659945,443.63300000000004,2.185,39.002769,-87.760621,2017
IL,17035,424219,Cumberland County,896203087,2531272,346.026,0.977,39.273121,-88.240619,2017
IL,17037,422190,DeKalb County,1635216352,8545243,631.361,3.299,41.894612,-88.768991,2017
IL,17039,426598,De Witt County,1029643576,19519851,397.548,7.537000000000001,40.181499,-88.901853,2017
IL,17041,424222,Douglas County,1079156592,1448702,416.665,0.5589999999999999,39.766078,-88.222866,2017
IL,17043,422191,DuPage County,848222200,22887251,327.5,8.837,41.852058,-88.086038,2017
IL,17045,424224,Edgar County,1614542009,1600421,623.378,0.618,39.679037,-87.74710999999999,2017
IL,17047,424225,Edwards County,576062000,781203,222.419,0.302,38.417095,-88.04794100000001,2017
IL,17049,424226,Effingham County,1240027659,3183217,478.777,1.229,39.047945,-88.592849,2017
IL,17051,424227,Fayette County,1855687602,22942188,716.485,8.857999999999999,39.001125,-89.017923,2017
IL,17053,424228,Ford County,1257719718,1640286,485.608,0.633,40.596539,-88.224588,2017
IL,17055,424229,Franklin County,1059021102,58413469,408.89,22.554000000000002,37.991848,-88.92624599999999,2017
IL,17057,424230,Fulton County,2241880793,43973314,865.595,16.977999999999998,40.46524,-90.202269,2017
IL,17059,424231,Gallatin County,836749960,13238356,323.07099999999997,5.111000000000001,37.768677000000004,-88.227964,2017
IL,17061,424232,Greene County,1406413317,8425393,543.019,3.253,39.355444,-90.387757,2017
IL,17063,424233,Grundy County,1082840997,32125709,418.087,12.404000000000002,41.29241,-88.401054,2017
IL,17065,424234,Hamilton County,1125780248,3172680,434.666,1.225,38.085226,-88.539005,2017
IL,17067,424235,Hancock County,2055740566,53535827,793.7260000000001,20.67,40.405792,-91.167987,2017
IL,17069,424236,Hardin County,459696734,10588858,177.49,4.088,37.517852000000005,-88.266148,2017
IL,17071,424237,Henderson County,981273713,42340542,378.87199999999996,16.348,40.814471000000005,-90.94124599999999,2017
IL,17073,424238,Henry County,2131552073,6862245,822.997,2.65,41.350021000000005,-90.130838,2017
IL,17075,424239,Iroquois County,2893780721,4225839,1117.295,1.632,40.748867,-87.833601,2017
IL,17077,424240,Jackson County,1512739207,47416095,584.072,18.307000000000002,37.786096,-89.381212,2017
IL,17079,424241,Jasper County,1280788076,9334509,494.515,3.6039999999999996,39.004874,-88.150763,2017
IL,17081,424242,Jefferson County,1479314410,32679991,571.1669999999999,12.618,38.300779999999996,-88.92421,2017
IL,17083,424243,Jersey County,956433111,20324168,369.281,7.847,39.080192,-90.361365,2017
IL,17085,424244,Jo Daviess County,1556339187,45776828,600.906,17.675,42.362390999999995,-90.21146999999999,2017
IL,17087,424245,Johnson County,890741064,12811451,343.917,4.947,37.460709,-88.882131,2017
IL,17089,424246,Kane County,1347216944,10775892,520.163,4.1610000000000005,41.939594,-88.42804,2017
IL,17091,424247,Kankakee County,1752331448,12418602,676.579,4.795,41.139509999999994,-87.86111700000001,2017
IL,17093,424248,Kendall County,829446935,5141326,320.251,1.985,41.58814,-88.430626,2017
IL,17095,424249,Knox County,1855506547,8834348,716.415,3.411,40.930941,-90.213761,2017
IL,17097,1784796,Lake County,1149926934,2394188156,443.98900000000003,924.4010000000001,42.326440999999996,-87.435976,2017
IL,17099,422247,LaSalle County,2939990781,33693285,1135.137,13.009,41.343340999999995,-88.885931,2017
IL,17101,424252,Lawrence County,963936864,5077778,372.17800000000005,1.9609999999999999,38.718954,-87.730221,2017
IL,17103,424253,Lee County,1877336099,10634483,724.8439999999999,4.106,41.747442,-89.299351,2017
IL,17105,424254,Livingston County,2704538434,4401361,1044.228,1.699,40.894376,-88.552852,2017
IL,17107,424255,Logan County,1600758859,2252736,618.056,0.87,40.129121999999995,-89.365307,2017
IL,17109,1784729,McDonough County,1526558090,2012555,589.4069999999999,0.777,40.455808000000005,-90.678954,2017
IL,17111,1784815,McHenry County,1562336883,19832927,603.222,7.6579999999999995,42.324298,-88.45224499999999,2017
IL,17113,1784833,McLean County,3064581023,7842778,1183.241,3.028,40.494559,-88.844539,2017
IL,17115,424256,Macon County,1503973504,13409564,580.687,5.1770000000000005,39.860237,-88.961529,2017
IL,17117,424257,Macoupin County,2234952037,12253242,862.92,4.731,39.2659,-89.926344,2017
IL,17119,424258,Madison County,1853819910,64225067,715.7639999999999,24.796999999999997,38.827082,-89.900195,2017
IL,17121,424259,Marion County,1482448747,9481542,572.377,3.661,38.648106,-88.920488,2017
IL,17123,424260,Marshall County,1001787870,30368315,386.792,11.725,41.031119,-89.342371,2017
IL,17125,424261,Mason County,1396619099,62745252,539.238,24.226,40.236993,-89.913575,2017
IL,17127,1784730,Massac County,614391211,11903724,237.218,4.596,37.216119,-88.705658,2017
IL,17129,424266,Menard County,814389209,2641080,314.437,1.02,40.022569,-89.794133,2017
IL,17131,1784750,Mercer County,1453500381,19409929,561.2,7.494,41.204791,-90.741433,2017
IL,17133,1784865,Monroe County,997207732,33717847,385.024,13.019,38.277983,-90.179078,2017
IL,17135,1784866,Montgomery County,1822539611,15512963,703.687,5.99,39.228093,-89.478004,2017
IL,17137,424270,Morgan County,1473194924,9064992,568.804,3.5,39.7183,-90.202543,2017
IL,17139,1784885,Moultrie County,870088233,22103176,335.94300000000004,8.533999999999999,39.636896,-88.625726,2017
IL,17141,1784894,Ogle County,1964706939,11425029,758.578,4.4110000000000005,42.041884,-89.320176,2017
IL,17143,1784920,Peoria County,1602484321,30706228,618.7230000000001,11.856,40.785995,-89.76710600000001,2017
IL,17145,1784940,Perry County,1144186125,13416186,441.773,5.18,38.084381,-89.368525,2017
IL,17147,424275,Piatt County,1137445090,756346,439.17,0.292,40.009056,-88.59232800000001,2017
IL,17149,1784941,Pike County,2153317672,45283711,831.4010000000001,17.484,39.625106,-90.889034,2017
IL,17151,424277,Pope County,955109669,14328523,368.77,5.532,37.417169,-88.542374,2017
IL,17153,1784966,Pulaski County,515887465,10473563,199.185,4.044,37.215615,-89.12775500000001,2017
IL,17155,424279,Putnam County,414813860,31243032,160.161,12.062999999999999,41.198961,-89.29834699999999,2017
IL,17157,1784967,Randolph County,1490498589,56254913,575.485,21.72,38.056515000000005,-89.82121,2017
IL,17159,424281,Richland County,932444608,4863725,360.019,1.8780000000000001,38.711552000000005,-88.085698,2017
IL,17161,424282,Rock Island County,1107115477,61715041,427.46,23.828000000000003,41.468404,-90.572203,2017
IL,17163,1784987,St. Clair County,1703659884,42054455,657.7869999999999,16.237000000000002,38.470197999999996,-89.928546,2017
IL,17165,424283,Saline County,983755534,17999636,379.83,6.95,37.751508,-88.545024,2017
IL,17167,1785010,Sangamon County,2248891495,22577723,868.302,8.717,39.757258,-89.662032,2017
IL,17169,1785037,Schuyler County,1132531697,10511619,437.273,4.059,40.156905,-90.61346400000001,2017
IL,17171,424286,Scott County,649861236,4812706,250.91299999999998,1.858,39.637002,-90.47777099999999,2017
IL,17173,1785051,Shelby County,1964598160,24693146,758.5360000000001,9.533999999999999,39.384926,-88.798862,2017
IL,17175,424288,Stark County,746121490,708705,288.079,0.27399999999999997,41.096908,-89.797411,2017
IL,17177,1785076,Stephenson County,1462175613,1385929,564.549,0.535,42.349726000000004,-89.665994,2017
IL,17179,1785094,Tazewell County,1674232803,29822303,646.425,11.514000000000001,40.508074,-89.51626,2017
IL,17181,1785113,Union County,1070855939,22502264,413.46,8.687999999999999,37.485644,-89.244638,2017
IL,17183,1785114,Vermilion County,2326763522,7534491,898.368,2.909,40.186754,-87.726778,2017
IL,17185,424293,Wabash County,578224627,11012015,223.25400000000002,4.252,38.445821,-87.839167,2017
IL,17187,1785134,Warren County,1404823489,1674135,542.405,0.6459999999999999,40.850441,-90.620223,2017
IL,17189,1785150,Washington County,1457058107,3454759,562.573,1.334,38.35314,-89.417187,2017
IL,17191,424296,Wayne County,1848771790,4328965,713.815,1.671,38.431857,-88.43243000000001,2017
IL,17193,424297,White County,1281447206,18366965,494.77,7.0920000000000005,38.087371999999995,-88.178585,2017
IL,17195,1785167,Whiteside County,1772197821,31797486,684.2489999999999,12.277000000000001,41.750571,-89.910957,2017
IL,17197,1785190,Will County,2166099738,33374154,836.336,12.886,41.448474,-87.97845600000001,2017
IL,17199,1785215,Williamson County,1088248004,62617689,420.175,24.177,37.730353,-88.930018,2017
IL,17201,1785216,Winnebago County,1329696034,15107670,513.399,5.832999999999999,42.337396000000005,-89.16120500000001,2017
IL,17203,1785231,Woodford County,1366998850,38437077,527.8009999999999,14.841,40.789789,-89.210607,2017
IN,18001,450401,Adams County,878079474,2429955,339.028,0.938,40.745733,-84.93613,2017
IN,18003,450402,Allen County,1702454342,6999605,657.321,2.7030000000000003,41.091854999999995,-85.07223,2017
IN,18005,451683,Bartholomew County,1053869826,6814131,406.901,2.6310000000000002,39.205843,-85.897999,2017
IN,18007,450403,Benton County,1052616452,236033,406.418,0.091,40.600983,-87.31479,2017
IN,18009,450404,Blackford County,427554638,1303566,165.08,0.503,40.472671999999996,-85.32373,2017
IN,18011,450405,Boone County,1095336143,877936,422.912,0.33899999999999997,40.050892,-86.469014,2017
IN,18013,451684,Brown County,808043862,12025993,311.987,4.643,39.192864,-86.239728,2017
IN,18015,450406,Carroll County,964054634,7239098,372.224,2.795,40.58498,-86.565141,2017
IN,18017,450339,Cass County,1067475985,6974423,412.155,2.693,40.753799,-86.355168,2017
IN,18019,450340,Clark County,965646802,9223876,372.838,3.5610000000000004,38.476217,-85.711122,2017
IN,18021,450341,Clay County,926189694,7038300,357.60400000000004,2.718,39.393951,-87.115837,2017
IN,18023,450342,Clinton County,1049119206,461117,405.06699999999995,0.17800000000000002,40.305944000000004,-86.47756700000001,2017
IN,18025,451674,Crawford County,791534789,8041751,305.613,3.105,38.289433,-86.440871,2017
IN,18027,450343,Daviess County,1112375531,19123262,429.491,7.3839999999999995,38.696089,-87.076944,2017
IN,18029,450344,Dearborn County,790138587,6033369,305.074,2.329,39.14832,-84.97349799999999,2017
IN,18031,450345,Decatur County,964946087,1955470,372.56800000000004,0.755,39.30598,-85.499831,2017
IN,18033,450346,DeKalb County,939731978,2657419,362.833,1.026,41.401189,-85.000185,2017
IN,18035,450347,Delaware County,1015542111,9857909,392.103,3.806,40.227543,-85.399262,2017
IN,18037,451675,Dubois County,1106626119,20883162,427.27099999999996,8.062999999999999,38.373344,-86.873385,2017
IN,18039,450348,Elkhart County,1199614707,12423391,463.17400000000004,4.797,41.600693,-85.863986,2017
IN,18041,450349,Fayette County,556901556,366408,215.021,0.141,39.639655,-85.18503100000001,2017
IN,18043,450350,Floyd County,383225658,2708194,147.964,1.046,38.317935999999996,-85.911474,2017
IN,18045,450351,Fountain County,1024769248,5734092,395.666,2.214,40.121237,-87.234872,2017
IN,18047,450352,Franklin County,995670602,17143494,384.431,6.619,39.409762,-85.066964,2017
IN,18049,450353,Fulton County,954146361,7426329,368.398,2.867,41.050384,-86.265006,2017
IN,18051,450354,Gibson County,1262606254,30223915,487.495,11.67,38.317398,-87.580523,2017
IN,18053,450355,Grant County,1072452772,2133506,414.07599999999996,0.8240000000000001,40.515758,-85.654946,2017
IN,18055,451676,Greene County,1404983930,8919620,542.467,3.444,39.047146999999995,-87.00477099999999,2017
IN,18057,450356,Hamilton County,1021307261,20999468,394.329,8.107999999999999,40.05365,-86.021726,2017
IN,18059,450357,Hancock County,792563315,2628056,306.01,1.015,39.82253,-85.773162,2017
IN,18061,451677,Harrison County,1254889443,5193189,484.51599999999996,2.005,38.186440000000005,-86.10368100000001,2017
IN,18063,450358,Hendricks County,1053849206,4880843,406.89300000000003,1.885,39.768963,-86.509908,2017
IN,18065,450359,Henry County,1014954735,7655289,391.876,2.9560000000000004,39.929590999999995,-85.397363,2017
IN,18067,450360,Howard County,758866967,2386193,293.0,0.9209999999999999,40.483537,-86.114118,2017
IN,18069,450361,Huntington County,991057049,13133342,382.649,5.071000000000001,40.826394,-85.478597,2017
IN,18071,451678,Jackson County,1319087093,11923424,509.30199999999996,4.604,38.911957,-86.042516,2017
IN,18073,450494,Jasper County,1449422928,4569484,559.625,1.764,41.017688,-87.118814,2017
IN,18075,450362,Jay County,994310106,458556,383.905,0.177,40.434971999999995,-85.00338,2017
IN,18077,450363,Jefferson County,934033957,5843999,360.63300000000004,2.256,38.783604,-85.44009,2017
IN,18079,450364,Jennings County,975364386,4546211,376.59,1.755,38.996229,-85.628103,2017
IN,18081,450365,Johnson County,829909465,3525572,320.43,1.361,39.495986,-86.0946,2017
IN,18083,450366,Knox County,1336511182,20758112,516.03,8.015,38.688390999999996,-87.420354,2017
IN,18085,450367,Kosciusko County,1376361579,59509695,531.4159999999999,22.976999999999997,41.244293,-85.861575,2017
IN,18087,450368,LaGrange County,983237213,18317909,379.63,7.0729999999999995,41.642468,-85.426302,2017
IN,18089,450495,Lake County,1292050352,330971523,498.86300000000006,127.789,41.472246999999996,-87.374337,2017
IN,18091,450507,LaPorte County,1549582915,38751745,598.297,14.962,41.549013,-86.744739,2017
IN,18093,451703,Lawrence County,1163367128,7122898,449.17900000000003,2.75,38.839815,-86.48782,2017
IN,18095,450370,Madison County,1170457563,2559342,451.916,0.988,40.166203,-85.722454,2017
IN,18097,450371,Marion County,1026465038,17326366,396.32,6.69,39.782976,-86.13579399999999,2017
IN,18099,450372,Marshall County,1148996723,15831838,443.63,6.1129999999999995,41.325003,-86.269036,2017
IN,18101,451679,Martin County,869615710,12033246,335.76099999999997,4.646,38.705321999999995,-86.801847,2017
IN,18103,450373,Miami County,968246952,9184624,373.842,3.5460000000000003,40.772881,-86.044258,2017
IN,18105,451680,Monroe County,1021814153,43504254,394.525,16.797,39.160728999999996,-86.52331,2017
IN,18107,450374,Montgomery County,1306954200,2144021,504.61800000000005,0.828,40.040296000000005,-86.892715,2017
IN,18109,450375,Morgan County,1046298638,14115819,403.978,5.45,39.482646,-86.447457,2017
IN,18111,450376,Newton County,1040539918,4349506,401.755,1.679,40.962399,-87.402172,2017
IN,18113,450377,Noble County,1064071452,17074609,410.84,6.593,41.40468,-85.417271,2017
IN,18115,450378,Ohio County,223126822,3352208,86.15,1.294,38.940527,-84.964299,2017
IN,18117,451681,Orange County,1031786463,25425748,398.375,9.817,38.547381,-86.489257,2017
IN,18119,450379,Owen County,997910783,6566402,385.296,2.535,39.317339000000004,-86.83884499999999,2017
IN,18121,450380,Parke County,1151747431,13683945,444.69199999999995,5.2829999999999995,39.77425,-87.19695,2017
IN,18123,451682,Perry County,988669306,11816977,381.727,4.563,38.081436,-86.62654,2017
IN,18125,450381,Pike County,865676037,17753971,334.23900000000003,6.855,38.397898,-87.23253199999999,2017
IN,18127,450382,Porter County,1082777926,268688087,418.06300000000005,103.741,41.509915,-87.071313,2017
IN,18129,450383,Posey County,1060786892,25260282,409.57199999999995,9.753,38.027614,-87.86865300000001,2017
IN,18131,446852,Pulaski County,1123146087,2291536,433.649,0.885,41.045272,-86.692538,2017
IN,18133,450384,Putnam County,1244585902,5585892,480.537,2.157,39.665548,-86.853373,2017
IN,18135,446853,Randolph County,1171656639,2420286,452.379,0.934,40.164079,-85.00579,2017
IN,18137,450385,Ripley County,1156236802,4237459,446.426,1.636,39.100226,-85.260494,2017
IN,18139,446854,Rush County,1057035404,872270,408.124,0.337,39.622357,-85.466403,2017
IN,18141,452855,St. Joseph County,1185912330,9070753,457.88300000000004,3.502,41.617699,-86.288159,2017
IN,18143,450386,Scott County,493126036,6088999,190.39700000000002,2.351,38.679431,-85.751898,2017
IN,18145,450387,Shelby County,1064884352,4149819,411.154,1.6019999999999999,39.524135,-85.792174,2017
IN,18147,450388,Spencer County,1027620480,12069099,396.767,4.66,38.009696999999996,-87.010375,2017
IN,18149,450389,Starke County,800678470,7930487,309.144,3.062,41.284478,-86.644636,2017
IN,18151,450390,Steuben County,799725227,35458838,308.776,13.690999999999999,41.643467,-85.00240500000001,2017
IN,18153,450391,Sullivan County,1158058307,18096342,447.129,6.987,39.089225,-87.41584300000001,2017
IN,18155,450392,Switzerland County,571509742,7193732,220.66099999999997,2.778,38.825854,-85.02968100000001,2017
IN,18157,450393,Tippecanoe County,1292138000,11256312,498.897,4.346,40.389133,-86.89355400000001,2017
IN,18159,450394,Tipton County,674797600,68028,260.541,0.026000000000000002,40.310229,-86.056207,2017
IN,18161,450395,Union County,417568563,10238515,161.224,3.9530000000000003,39.623111,-84.925152,2017
IN,18163,450396,Vanderburgh County,605228197,7654554,233.68,2.955,38.020070000000004,-87.586166,2017
IN,18165,450397,Vermillion County,665311748,7904759,256.878,3.052,39.854045,-87.462071,2017
IN,18167,450398,Vigo County,1044993095,18068475,403.474,6.976,39.429142999999996,-87.390375,2017
IN,18169,450399,Wabash County,1068205084,22117118,412.436,8.539,40.843747,-85.795192,2017
IN,18171,450400,Warren County,944520568,4466121,364.681,1.724,40.352658,-87.375847,2017
IN,18173,450335,Warrick County,996664713,16155577,384.814,6.2379999999999995,38.097728000000004,-87.272049,2017
IN,18175,451665,Washington County,1330545619,7438838,513.727,2.872,38.600613,-86.10475100000001,2017
IN,18177,450336,Wayne County,1040508996,6732250,401.74300000000005,2.5989999999999998,39.863091,-85.00673499999999,2017
IN,18179,450337,Wells County,953341274,5596377,368.087,2.161,40.735273,-85.212974,2017
IN,18181,450338,White County,1308269840,9203227,505.126,3.553,40.75095,-86.864293,2017
IN,18183,450369,Whitley County,869120483,6073937,335.569,2.345,41.136426,-85.501892,2017
IA,19001,465190,Adair County,1474404199,2597996,569.271,1.003,41.328528000000006,-94.478164,2017
IA,19003,465191,Adams County,1096700779,5353407,423.439,2.0669999999999997,41.021656,-94.69690600000001,2017
IA,19005,465192,Allamakee County,1655214176,50995532,639.082,19.689,43.274964000000004,-91.382751,2017
IA,19007,465193,Appanoose County,1287982562,49084378,497.293,18.952,40.744296000000006,-92.87306099999999,2017
IA,19009,465194,Audubon County,1147264553,1152260,442.961,0.445,41.679178,-94.904312,2017
IA,19011,465195,Benton County,1855117319,5760770,716.265,2.224,42.092546999999996,-92.05763,2017
IA,19013,465196,Black Hawk County,1465369216,17862718,565.7819999999999,6.897,42.471540999999995,-92.308033,2017
IA,19015,465197,Boone County,1480381942,5358723,571.5790000000001,2.069,42.038641999999996,-93.938358,2017
IA,19017,465198,Bremer County,1127885581,10166470,435.47900000000004,3.925,42.780895,-92.32735600000001,2017
IA,19019,465199,Buchanan County,1478934776,5427666,571.02,2.096,42.470328,-91.838666,2017
IA,19021,465200,Buena Vista County,1488989049,13791660,574.9019999999999,5.325,42.741521999999996,-95.141432,2017
IA,19023,465201,Butler County,1502550906,4194911,580.138,1.62,42.734708000000005,-92.780066,2017
IA,19025,465202,Calhoun County,1475894622,5873828,569.846,2.2680000000000002,42.38617,-94.643683,2017
IA,19027,465203,Carroll County,1474835092,2145349,569.437,0.828,42.039491999999996,-94.86764699999999,2017
IA,19029,465204,Cass County,1461450798,1758815,564.269,0.679,41.333824,-94.933302,2017
IA,19031,465205,Cedar County,1500730782,6385832,579.435,2.4659999999999997,41.77236,-91.132611,2017
IA,19033,465206,Cerro Gordo County,1471881731,17668265,568.297,6.822,43.074975,-93.25096500000001,2017
IA,19035,465207,Cherokee County,1494180443,423160,576.906,0.163,42.742737,-95.633262,2017
IA,19037,465208,Chickasaw County,1306338760,3309323,504.38,1.278,43.059740999999995,-92.31721,2017
IA,19039,465209,Clarke County,1116716130,1524746,431.167,0.589,41.029191,-93.78409599999999,2017
IA,19041,465625,Clay County,1469139466,13866649,567.238,5.354,43.081224,-95.149875,2017
IA,19043,465210,Clayton County,2016295994,36695627,778.4960000000001,14.168,42.840984999999996,-91.323576,2017
IA,19045,465211,Clinton County,1799830900,39514681,694.919,15.257,41.898073,-90.534243,2017
IA,19047,465212,Crawford County,1849742884,2194272,714.19,0.847,42.043119,-95.38909,2017
IA,19049,465213,Dallas County,1523691141,8561943,588.3,3.306,41.685321,-94.040707,2017
IA,19051,465214,Davis County,1300661857,6904096,502.18800000000005,2.6660000000000004,40.748089,-92.41034499999999,2017
IA,19053,465215,Decatur County,1377567314,4140764,531.882,1.599,40.736379,-93.78458,2017
IA,19055,465216,Delaware County,1496278852,3185282,577.717,1.23,42.472937,-91.36676700000001,2017
IA,19057,465217,Des Moines County,1077784093,35342793,416.135,13.645999999999999,40.915339,-91.186925,2017
IA,19059,465218,Dickinson County,985539078,60716111,380.519,23.443,43.389611,-95.196057,2017
IA,19061,465219,Dubuque County,1575488090,21138790,608.299,8.162,42.463481,-90.878771,2017
IA,19063,465220,Emmet County,1025328490,17196403,395.88199999999995,6.64,43.377984000000005,-94.66937,2017
IA,19065,465221,Fayette County,1892840950,1320705,730.83,0.51,42.864121999999995,-91.840376,2017
IA,19067,465222,Floyd County,1296631080,1942548,500.63199999999995,0.75,43.052741,-92.787367,2017
IA,19069,465223,Franklin County,1507301123,1428932,581.972,0.552,42.736549,-93.271425,2017
IA,19071,465224,Fremont County,1323807065,14280096,511.125,5.513999999999999,40.74259,-95.599182,2017
IA,19073,465225,Greene County,1475260906,4255701,569.601,1.643,42.042494,-94.388703,2017
IA,19075,465226,Grundy County,1299797785,94406,501.855,0.036000000000000004,42.403323,-92.790261,2017
IA,19077,465227,Guthrie County,1529698836,6355533,590.62,2.454,41.683572999999996,-94.501272,2017
IA,19079,465228,Hamilton County,1493777024,1965341,576.751,0.759,42.390768,-93.709198,2017
IA,19081,465229,Hancock County,1478895055,5265568,571.005,2.033,43.075410999999995,-93.743697,2017
IA,19083,465230,Hardin County,1474507918,1773877,569.311,0.685,42.390208,-93.24166899999999,2017
IA,19085,465231,Harrison County,1804808356,12417698,696.84,4.795,41.688584000000006,-95.827149,2017
IA,19087,465232,Henry County,1124792081,5768130,434.285,2.227,40.984802,-91.547259,2017
IA,19089,465233,Howard County,1225706339,927963,473.24800000000005,0.358,43.365312,-92.321908,2017
IA,19091,465234,Humboldt County,1124996886,3376514,434.36400000000003,1.304,42.782221,-94.202775,2017
IA,19093,465235,Ida County,1117599859,1406461,431.50800000000004,0.5429999999999999,42.39186,-95.507421,2017
IA,19095,465236,Iowa County,1518916008,2686847,586.457,1.037,41.683918,-92.059123,2017
IA,19097,465237,Jackson County,1647332487,35141496,636.039,13.568,42.164281,-90.574596,2017
IA,19099,465238,Jasper County,1891773617,6565650,730.418,2.535,41.685551000000004,-93.054147,2017
IA,19101,465239,Jefferson County,1127999784,3524824,435.523,1.361,41.006384000000004,-91.96744,2017
IA,19103,465240,Johnson County,1590377745,23572945,614.048,9.102,41.668877,-91.588924,2017
IA,19105,465241,Jones County,1490771974,3661438,575.59,1.4140000000000001,42.125118,-91.11691400000001,2017
IA,19107,465242,Keokuk County,1500067253,1929323,579.179,0.745,41.331182,-92.167721,2017
IA,19109,465243,Kossuth County,2519361813,4125592,972.7310000000001,1.5930000000000002,43.212478000000004,-94.213983,2017
IA,19111,465244,Lee County,1340422373,55292890,517.54,21.349,40.647588,-91.47715699999999,2017
IA,19113,465245,Linn County,1856758894,19699801,716.8989999999999,7.606,42.077951,-91.597674,2017
IA,19115,465246,Louisa County,1040583090,40784329,401.77099999999996,15.747,41.218211,-91.25699399999999,2017
IA,19117,465247,Lucas County,1115257644,9852833,430.603,3.804,41.033344,-93.331467,2017
IA,19119,465248,Lyon County,1522007138,334399,587.65,0.129,43.38358,-96.207201,2017
IA,19121,465249,Madison County,1452999208,2983840,561.006,1.1520000000000001,41.330622,-94.01518399999999,2017
IA,19123,465250,Mahaska County,1478527855,6564804,570.863,2.535,41.330797,-92.63636600000001,2017
IA,19125,465251,Marion County,1436124182,41487001,554.491,16.018,41.331455,-93.093849,2017
IA,19127,465252,Marshall County,1482776070,1803080,572.503,0.696,42.041691,-92.981452,2017
IA,19129,465253,Mills County,1132950323,8306492,437.435,3.207,41.033703,-95.619101,2017
IA,19131,465254,Mitchell County,1215049040,1118415,469.13300000000004,0.43200000000000005,43.348564,-92.78446600000001,2017
IA,19133,465255,Monona County,1797637874,12592242,694.072,4.862,42.049432,-95.95656600000001,2017
IA,19135,465256,Monroe County,1123317229,1522790,433.715,0.588,41.028847,-92.869642,2017
IA,19137,465257,Montgomery County,1098405722,2410445,424.097,0.9309999999999999,41.021735,-95.15779,2017
IA,19139,465258,Muscatine County,1132977189,30262373,437.445,11.684000000000001,41.483776,-91.11869899999999,2017
IA,19141,465259,O'Brien County,1484154165,447448,573.035,0.17300000000000001,43.083746000000005,-95.625624,2017
IA,19143,465260,Osceola County,1032593860,1835265,398.68699999999995,0.7090000000000001,43.378541999999996,-95.633788,2017
IA,19145,465261,Page County,1385497544,1359120,534.944,0.525,40.739090000000004,-95.14429,2017
IA,19147,465262,Palo Alto County,1460391661,14437623,563.86,5.574,43.075337,-94.669055,2017
IA,19149,465263,Plymouth County,2234715192,2176851,862.828,0.84,42.737584999999996,-96.215864,2017
IA,19151,465264,Pocahontas County,1495047142,3666530,577.241,1.416,42.734033000000004,-94.678279,2017
IA,19153,465265,Polk County,1482734960,49332276,572.487,19.047,41.684816,-93.56897099999999,2017
IA,19155,465266,Pottawattamie County,2461903582,22261204,950.546,8.595,41.340184,-95.544905,2017
IA,19157,465267,Poweshiek County,1514929499,2977605,584.918,1.15,41.684526,-92.522882,2017
IA,19159,465268,Ringgold County,1386935176,8720332,535.499,3.367,40.735334,-94.244251,2017
IA,19161,465269,Sac County,1489300182,8569441,575.0219999999999,3.3089999999999997,42.387526,-95.10522399999999,2017
IA,19163,465270,Scott County,1186437866,26222175,458.086,10.124,41.642078999999995,-90.622289,2017
IA,19165,465271,Shelby County,1530110554,1486125,590.779,0.574,41.679014,-95.30891700000001,2017
IA,19167,465272,Sioux County,1988797652,2885657,767.8789999999999,1.114,43.082646000000004,-96.17801,2017
IA,19169,465273,Story County,1483235295,2509634,572.68,0.9690000000000001,42.037538,-93.466093,2017
IA,19171,465274,Tama County,1867411148,2769421,721.012,1.069,42.074847999999996,-92.529411,2017
IA,19173,465275,Taylor County,1377618873,7133364,531.9019999999999,2.7539999999999996,40.737949,-94.697108,2017
IA,19175,465276,Union County,1097235765,5575853,423.645,2.153,41.02855,-94.245091,2017
IA,19177,465277,Van Buren County,1255646356,14839917,484.80800000000005,5.73,40.754117,-91.952943,2017
IA,19179,465278,Wapello County,1118460312,10829143,431.84,4.181,41.031263,-92.409482,2017
IA,19181,465279,Warren County,1475875019,9095218,569.839,3.512,41.332446000000004,-93.568751,2017
IA,19183,465280,Washington County,1473243904,5353677,568.823,2.0669999999999997,41.329401000000004,-91.725052,2017
IA,19185,465281,Wayne County,1360940440,4347639,525.462,1.679,40.739983,-93.332613,2017
IA,19187,465282,Webster County,1853586077,7278162,715.674,2.81,42.433578999999995,-94.175831,2017
IA,19189,465283,Winnebago County,1037261944,3182052,400.48900000000003,1.229,43.378124,-93.743488,2017
IA,19191,465284,Winneshiek County,1786713778,698598,689.8539999999999,0.27,43.292989,-91.850788,2017
IA,19193,465285,Woodbury County,2260790978,12793719,872.8960000000001,4.94,42.39322,-96.053296,2017
IA,19195,465286,Worth County,1036314926,4709127,400.12300000000005,1.818,43.373490999999994,-93.248533,2017
IA,19197,465287,Wright County,1503286935,4703964,580.422,1.8159999999999998,42.733007,-93.734735,2017
KS,20001,484970,Allen County,1295762491,13023677,500.29699999999997,5.0280000000000005,37.884228,-95.300945,2017
KS,20003,484971,Anderson County,1501277564,10586104,579.6469999999999,4.087,38.215114,-95.292046,2017
KS,20005,484972,Atchison County,1116736559,6851102,431.17400000000004,2.645,39.532544,-95.313397,2017
KS,20007,484973,Barber County,2937248475,5403867,1134.078,2.086,37.222906,-98.685052,2017
KS,20009,484974,Barton County,2318718654,13913626,895.262,5.372000000000001,38.481239,-98.767837,2017
KS,20011,484975,Bourbon County,1645861891,9377598,635.471,3.6210000000000004,37.8561,-94.850928,2017
KS,20013,484976,Brown County,1478550074,3196147,570.871,1.234,39.825931,-95.569905,2017
KS,20015,484977,Butler County,3703330875,43157337,1429.864,16.663,37.773649,-96.83884,2017
KS,20017,484978,Chase County,2002208724,12087996,773.057,4.667,38.299475,-96.594029,2017
KS,20019,484979,Chautauqua County,1654694139,15243783,638.881,5.886,37.154259,-96.245396,2017
KS,20021,484980,Cherokee County,1521791027,8951473,587.567,3.4560000000000004,37.169391999999995,-94.845698,2017
KS,20023,484981,Cheyenne County,2641501922,2738021,1019.89,1.057,39.789916999999996,-101.727325,2017
KS,20025,484982,Clark County,2524300311,6603384,974.638,2.55,37.233831,-99.813869,2017
KS,20027,484983,Clay County,1671314205,26701337,645.298,10.309000000000001,39.344964000000004,-97.168853,2017
KS,20029,484984,Cloud County,1852726628,6859887,715.342,2.6489999999999996,39.487328999999995,-97.64139,2017
KS,20031,484985,Coffey County,1623624044,70470775,626.885,27.209,38.23645,-95.729137,2017
KS,20033,484986,Comanche County,2041681113,3604155,788.298,1.392,37.181442,-99.251293,2017
KS,20035,484987,Cowley County,2915648172,17322934,1125.738,6.688,37.234507,-96.83724699999999,2017
KS,20037,484988,Crawford County,1527463453,13609414,589.757,5.255,37.505821000000005,-94.853897,2017
KS,20039,484989,Decatur County,2314199314,1631670,893.5169999999999,0.63,39.783542,-100.45970799999999,2017
KS,20041,484990,Dickinson County,2193894222,12632461,847.067,4.877,38.867734999999996,-97.157943,2017
KS,20043,484991,Doniphan County,1019094906,12434954,393.475,4.801,39.788502,-95.147225,2017
KS,20045,484992,Douglas County,1180628927,48674249,455.843,18.793,38.896417,-95.290947,2017
KS,20047,484993,Edwards County,1610699247,206413,621.894,0.08,37.883595,-99.304746,2017
KS,20049,484994,Elk County,1668636733,16061122,644.264,6.2010000000000005,37.456026,-96.244642,2017
KS,20051,484995,Ellis County,2330762291,1197085,899.9119999999999,0.462,38.914597,-99.317313,2017
KS,20053,484996,Ellsworth County,1854037822,19262994,715.8480000000001,7.437,38.700845,-98.20535500000001,2017
KS,20055,485326,Finney County,3372066557,1794398,1301.962,0.693,38.049808,-100.73996700000001,2017
KS,20057,484997,Ford County,2844508248,2097356,1098.271,0.81,37.688416,-99.884748,2017
KS,20059,484998,Franklin County,1480855486,13920174,571.762,5.375,38.558019,-95.27896199999999,2017
KS,20061,484999,Geary County,996280339,51594747,384.666,19.921,39.002156,-96.76803699999999,2017
KS,20063,485000,Gove County,2775601943,245369,1071.6660000000002,0.095,38.917239,-100.48736,2017
KS,20065,481811,Graham County,2327173855,599356,898.5269999999999,0.231,39.354972,-99.879894,2017
KS,20067,485099,Grant County,1488724884,892323,574.8,0.345,37.547537,-101.299362,2017
KS,20069,485001,Gray County,2250356164,1113338,868.867,0.43,37.744513,-100.451716,2017
KS,20071,485002,Greeley County,2016057985,0,778.404,0.0,38.480404,-101.80597,2017
KS,20073,485003,Greenwood County,2961121922,24166737,1143.296,9.331,37.879346999999996,-96.241732,2017
KS,20075,485327,Hamilton County,2580958344,2893322,996.5139999999999,1.117,37.995244,-101.793689,2017
KS,20077,485004,Harper County,2075276152,3913474,801.2689999999999,1.511,37.188184,-98.06659,2017
KS,20079,485005,Harvey County,1397961182,2503283,539.756,0.9670000000000001,38.050144,-97.436706,2017
KS,20081,485328,Haskell County,1495773052,910409,577.521,0.35200000000000004,37.554978999999996,-100.879952,2017
KS,20083,485006,Hodgeman County,2227369151,826344,859.992,0.319,38.087493,-99.89840699999999,2017
KS,20085,485007,Jackson County,1699600373,4666514,656.2189999999999,1.8019999999999998,39.411145,-95.794485,2017
KS,20087,485008,Jefferson County,1379359782,62427887,532.5740000000001,24.104,39.239644,-95.375314,2017
KS,20089,485009,Jewell County,2356317389,11863330,909.779,4.58,39.777002,-98.22261800000001,2017
KS,20091,485010,Johnson County,1226262480,16736159,473.463,6.462000000000001,38.883907,-94.82233000000001,2017
KS,20093,485011,Kearny County,2254696682,1133601,870.543,0.43799999999999994,37.994461,-101.308136,2017
KS,20095,485012,Kingman County,2236100139,8536907,863.363,3.2960000000000003,37.552951,-98.144529,2017
KS,20097,485013,Kiowa County,1871627778,596764,722.64,0.23,37.561231,-99.286539,2017
KS,20099,485014,Labette County,1671303693,20263208,645.294,7.824,37.191468,-95.297473,2017
KS,20101,485015,Lane County,1858093492,551220,717.414,0.213,38.481286,-100.466185,2017
KS,20103,485016,Leavenworth County,1200335284,14221659,463.452,5.4910000000000005,39.189510999999996,-95.038977,2017
KS,20105,485017,Lincoln County,1863226687,2748359,719.3960000000001,1.061,39.04728,-98.21428399999999,2017
KS,20107,485018,Linn County,1538581904,31974029,594.05,12.345,38.216549,-94.844932,2017
KS,20109,485019,Logan County,2779039722,274632,1072.993,0.106,38.913270000000004,-101.157402,2017
KS,20111,485020,Lyon County,2194957493,20562422,847.4780000000001,7.939,38.455498,-96.161589,2017
KS,20113,485021,McPherson County,2326519566,6031186,898.2739999999999,2.329,38.395812,-97.64748900000001,2017
KS,20115,485022,Marion County,2445701362,24448710,944.291,9.44,38.359646999999995,-97.10277099999999,2017
KS,20117,485023,Marshall County,2331432992,12743798,900.171,4.92,39.782709000000004,-96.521243,2017
KS,20119,485024,Meade County,2533222390,3258258,978.0830000000001,1.258,37.243885999999996,-100.36009399999999,2017
KS,20121,485025,Miami County,1490955581,37798751,575.661,14.594000000000001,38.566772,-94.832963,2017
KS,20123,485026,Mitchell County,1817632928,44979980,701.7919999999999,17.367,39.393026,-98.207362,2017
KS,20125,485027,Montgomery County,1666728645,20601461,643.528,7.954,37.189537,-95.742403,2017
KS,20127,485028,Morris County,1800737060,19736109,695.268,7.62,38.688204,-96.651448,2017
KS,20129,485135,Morton County,1889993244,507796,729.7310000000001,0.196,37.185249,-101.809516,2017
KS,20131,485029,Nemaha County,1858124407,5208983,717.426,2.011,39.791043,-96.005381,2017
KS,20133,485030,Neosho County,1480106489,16374155,571.472,6.322,37.564283,-95.31568299999999,2017
KS,20135,485031,Ness County,2783557951,667491,1074.738,0.258,38.480437,-99.908745,2017
KS,20137,485032,Norton County,2274122723,8421464,878.044,3.252,39.783867,-99.899235,2017
KS,20139,485033,Osage County,1827283226,37107132,705.518,14.327,38.648409,-95.707596,2017
KS,20141,485034,Osborne County,2311575393,4806274,892.5039999999999,1.8559999999999999,39.348261,-98.767942,2017
KS,20143,485035,Ottawa County,1866683174,1567629,720.73,0.605,39.137963,-97.654802,2017
KS,20145,485036,Pawnee County,1953531655,992041,754.263,0.38299999999999995,38.181477,-99.23477199999999,2017
KS,20147,485037,Phillips County,2294395642,22493382,885.8710000000001,8.685,39.784506,-99.34215,2017
KS,20149,485038,Pottawatomie County,2177617398,54039076,840.783,20.865,39.382187,-96.337113,2017
KS,20151,485039,Pratt County,1903740958,1771939,735.039,0.684,37.647594,-98.74011999999999,2017
KS,20153,485040,Rawlins County,2769775729,415527,1069.4160000000002,0.16,39.786198,-101.076738,2017
KS,20155,485041,Reno County,3251326003,43423736,1255.344,16.766,37.948184999999995,-98.078346,2017
KS,20157,485042,Republic County,1857980543,7969708,717.37,3.077,39.82891,-97.650921,2017
KS,20159,485043,Rice County,1880935846,4482698,726.2330000000001,1.7309999999999999,38.347178,-98.201415,2017
KS,20161,485044,Riley County,1579167161,31952420,609.72,12.337,39.291211,-96.727489,2017
KS,20163,485045,Rooks County,2306483733,11962259,890.538,4.619,39.346006,-99.324492,2017
KS,20165,485358,Rush County,1858997545,544720,717.763,0.21,38.523592,-99.30918299999999,2017
KS,20167,485046,Russell County,2295402887,34126777,886.26,13.175999999999998,38.91604,-98.770949,2017
KS,20169,485047,Saline County,1865381414,2809967,720.2280000000001,1.085,38.786327,-97.650153,2017
KS,20171,485048,Scott County,1858536844,306079,717.585,0.11800000000000001,38.481877000000004,-100.90635999999999,2017
KS,20173,485049,Sedgwick County,2583496854,30113787,997.4939999999999,11.627,37.681045000000005,-97.461054,2017
KS,20175,485050,Seward County,1655865965,2777350,639.3330000000001,1.072,37.180623,-100.85493199999999,2017
KS,20177,485051,Shawnee County,1408930616,30396059,543.991,11.735999999999999,39.041805,-95.755664,2017
KS,20179,485052,Sheridan County,2320518307,647342,895.957,0.25,39.350547,-100.44122800000001,2017
KS,20181,485053,Sherman County,2735193304,548248,1056.0639999999999,0.212,39.351352,-101.719859,2017
KS,20183,484969,Smith County,2319241783,3884267,895.4639999999999,1.5,39.784659999999995,-98.78542900000001,2017
KS,20185,485054,Stafford County,2051389756,7435417,792.046,2.8710000000000004,38.03563,-98.719889,2017
KS,20187,485055,Stanton County,1762104518,178555,680.352,0.069,37.565932000000004,-101.789383,2017
KS,20189,485056,Stevens County,1883604193,464936,727.2639999999999,0.18,37.200969,-101.317577,2017
KS,20191,481812,Sumner County,3060416043,8602566,1181.633,3.321,37.236662,-97.493352,2017
KS,20193,485057,Thomas County,2783425154,288241,1074.687,0.111,39.357713000000004,-101.08338499999999,2017
KS,20195,485058,Trego County,2303731642,26281951,889.4760000000001,10.148,38.921302000000004,-99.86542299999999,2017
KS,20197,485059,Wabaunsee County,2057386289,13786678,794.3610000000001,5.3229999999999995,38.955154,-96.201262,2017
KS,20199,485060,Wallace County,2366348295,140932,913.6519999999999,0.054000000000000006,38.926626,-101.771103,2017
KS,20201,485061,Washington County,2317419238,10139803,894.7610000000001,3.915,39.776714,-97.095611,2017
