state,geoid,ansi_code,name,legal_stat_area_desc,functional_status,land_area_meters_sq,water_area_meters_sq,land_area_miles_sq,water_area_miles_sq,latitude,longitude,year
AL,0100100,2582661,Abanda CDP,57,S,7764034,34284,2.998,0.013000000000000001,33.091627,-85.527029,2017
AL,0100124,2403054,Abbeville city,25,A,40255362,107642,15.543,0.042,31.564689,-85.259124,2017
AL,0100460,2403063,Adamsville city,25,A,65211854,14122,25.178,0.005,33.605748,-86.974649,2017
AL,0100484,2405123,Addison town,43,A,9753292,83417,3.766,0.032,34.202681,-87.178004,2017
AL,0100676,2405125,Akron town,43,A,1776163,13849,0.6859999999999999,0.005,32.879495,-87.741679,2017
AL,0100820,2403069,Alabaster city,25,A,65217462,806150,25.180999999999997,0.311,33.226936,-86.761015,2017
AL,0100988,2403074,Albertville city,25,A,68731809,258708,26.538,0.1,34.26313,-86.21066,2017
AL,0101132,2403077,Alexander City city,25,A,108761846,739527,41.993,0.28600000000000003,32.927240000000005,-85.937122,2017
AL,0101180,2402638,Alexandria CDP,57,S,28834974,33099,11.133,0.013000000000000001,33.760819,-85.872008,2017
AL,0101228,2403080,Aliceville city,25,A,11819855,0,4.564,0.0,33.123686,-88.159364,2017
AL,0101396,2405136,Allgood town,43,A,2690288,1452,1.0390000000000001,0.001,33.907623,-86.516109,2017
AL,0101660,2405146,Altoona town,43,A,11193370,25442,4.322,0.01,34.040014,-86.30517900000001,2017
AL,0101708,2403097,Andalusia city,25,A,50911856,405912,19.657,0.157,31.309435999999998,-86.478031,2017
AL,0101756,2405149,Anderson town,43,A,3347216,1520,1.2919999999999998,0.001,34.915675,-87.274274,2017
AL,0101852,2403101,Anniston city,25,A,118096995,179314,45.598,0.069,33.673435,-85.810937,2017
AL,0102116,2403104,Arab city,25,A,34345826,346373,13.261,0.134,34.332387,-86.50116700000001,2017
AL,0102260,2405163,Ardmore town,43,A,5289895,21830,2.042,0.008,34.987838,-86.829022,2017
AL,0102320,2405164,Argo town,43,A,27893577,150331,10.77,0.057999999999999996,33.691576,-86.503766,2017
AL,0102428,2405166,Ariton town,43,A,13182489,0,5.09,0.0,31.597771999999996,-85.713061,2017
AL,0102500,2405167,Arley town,43,A,9740655,33989,3.761,0.013000000000000001,34.076234,-87.217831,2017
AL,0102836,2405172,Ashford town,43,A,16269228,56699,6.282,0.022000000000000002,31.185284000000003,-85.236236,2017
AL,0102860,2405173,Ashland town,43,A,18986275,85046,7.331,0.033,33.269892,-85.833706,2017
AL,0102908,2403122,Ashville city,25,A,49762931,487107,19.214000000000002,0.188,33.835196999999994,-86.270015,2017
AL,0102956,2403123,Athens city,25,A,103236669,665559,39.86,0.257,34.779021,-86.950799,2017
AL,0103004,2403129,Atmore city,25,A,56622747,194035,21.862,0.075,31.127936,-87.457643,2017
AL,0103028,2403130,Attalla city,25,A,18079282,0,6.98,0.0,33.986189,-86.121037,2017
AL,0103076,2403132,Auburn city,25,A,152390480,2646160,58.838,1.022,32.607721999999995,-85.48954499999999,2017
AL,0103220,2405187,Autaugaville town,43,A,19936288,526181,7.697,0.203,32.432563,-86.658752,2017
AL,0103364,2405191,Avon town,43,A,6855900,53694,2.647,0.021,31.179727000000003,-85.279211,2017
AL,0103508,2628577,Axis CDP,57,S,10099844,28960,3.9,0.011000000000000001,30.922563,-88.02185,2017
AL,0103556,2405195,Babbie town,43,A,29709390,302262,11.470999999999998,0.11699999999999999,31.302083000000003,-86.319437,2017
AL,0103676,2405198,Baileyton town,43,A,13611429,155194,5.255,0.06,34.260858,-86.608788,2017
AL,0103724,2405200,Bakerhill town,43,A,7126271,0,2.7510000000000003,0.0,31.776922999999996,-85.295408,2017
AL,0103820,2582662,Ballplay CDP,57,S,60996781,485209,23.551,0.187,34.023046,-85.80148100000001,2017
AL,0103940,2405206,Banks town,43,A,5145554,0,1.9869999999999999,0.0,31.813264,-85.836434,2017
AL,0104660,2403825,Bay Minette city,25,A,44684954,202288,17.253,0.078,30.894436,-87.791306,2017
AL,0104684,2403828,Bayou La Batre city,25,A,19475780,369461,7.52,0.14300000000000002,30.407586,-88.263271,2017
AL,0104852,2405219,Bear Creek town,43,A,35295458,345562,13.628,0.133,34.255481,-87.713399,2017
AL,0104900,2405221,Beatrice town,43,A,3503547,0,1.3530000000000002,0.0,31.733309000000002,-87.209046,2017
AL,0104948,2405225,Beaverton town,43,A,11882782,0,4.588,0.0,33.935411,-88.021778,2017
AL,0105140,2628578,Belgreen CDP,57,S,3180831,15104,1.228,0.006,34.474540000000005,-87.861678,2017
AL,0105164,2405230,Belk town,43,A,3588962,0,1.386,0.0,33.651647,-87.928609,2017
AL,0105188,2628579,Bellamy CDP,57,S,9780480,108299,3.7760000000000002,0.042,32.463658,-88.13148100000001,2017
AL,0105212,2632282,Belle Fontaine CDP,57,S,4022920,939300,1.5530000000000002,0.363,30.489492,-88.10594,2017
AL,0105692,2405243,Benton town,43,A,781978,89459,0.302,0.035,32.307930999999996,-86.817546,2017
AL,0105932,2405250,Berry town,43,A,27884733,15029,10.765999999999998,0.006,33.666702,-87.609311,2017
AL,0105980,2403864,Bessemer city,25,A,104993277,433920,40.538000000000004,0.168,33.370789,-86.971568,2017
AL,0106460,2405265,Billingsley town,43,A,3383297,3909,1.306,0.002,32.66522,-86.706673,2017
AL,0107000,2403868,Birmingham city,25,A,378193305,6593182,146.02100000000002,2.546,33.527444,-86.799047,2017
AL,0107120,2405270,Black town,43,A,7980188,0,3.0810000000000004,0.0,31.010248999999998,-85.742791,2017
AL,0107456,2405280,Blountsville town,43,A,14039366,179778,5.421,0.069,34.075728000000005,-86.58372800000001,2017
AL,0107588,2402696,Blue Ridge CDP,57,S,20140466,229678,7.776,0.08900000000000001,32.4989,-86.182436,2017
AL,0107672,2405286,Blue Springs town,43,A,7500883,0,2.8960000000000004,0.0,31.663515999999998,-85.50352600000001,2017
AL,0107912,2403886,Boaz city,25,A,37683447,161880,14.55,0.063,34.199020000000004,-86.155151,2017
AL,0108104,2405297,Boligee town,43,A,10231296,36323,3.95,0.013999999999999999,32.7681,-88.02857900000001,2017
AL,0108248,2405301,Bon Air town,43,A,3436489,15386,1.327,0.006,33.259370000000004,-86.327148,2017
AL,0108272,2633314,Bon Secour CDP,57,S,11190210,859586,4.321000000000001,0.332,30.318246000000002,-87.72439,2017
AL,0108680,2628580,Boykin CDP,57,S,6888209,30520,2.66,0.012,32.068375,-87.29434300000001,2017
AL,0109016,2405315,Brantley town,43,A,8047471,130826,3.1069999999999998,0.051,31.581992,-86.256784,2017
AL,0109064,2582663,Brantleyville CDP,57,S,5687772,26749,2.1959999999999997,0.01,33.219303000000004,-86.882522,2017
AL,0109136,2403918,Brent city,25,A,22739426,77911,8.78,0.03,32.944893,-87.172088,2017
AL,0109208,2403921,Brewton city,25,A,29044814,609964,11.214,0.23600000000000002,31.109175,-87.076583,2017
AL,0109328,2403924,Bridgeport city,25,A,11210020,334212,4.328,0.129,34.949312,-85.723765,2017
AL,0109400,2403925,Brighton city,25,A,3664881,0,1.415,0.0,33.439252,-86.94538399999999,2017
AL,0109424,2405321,Brilliant town,43,A,27689166,0,10.690999999999999,0.0,34.025352000000005,-87.769147,2017
AL,0109457,2582664,Bristow Cove CDP,57,S,28083738,0,10.843,0.0,34.109215999999996,-86.240993,2017
AL,0109500,2403203,Brook Highland CDP,57,S,7267730,125104,2.806,0.048,33.442208,-86.686656,2017
AL,0109736,2405331,Brookside town,43,A,16582314,27676,6.402,0.011000000000000001,33.636965999999994,-86.89608,2017
AL,0109808,2405333,Brookwood town,43,A,21677043,236620,8.37,0.091,33.239844,-87.33149399999999,2017
AL,0109880,2582666,Broomtown CDP,57,S,12156602,0,4.694,0.0,34.365728000000004,-85.532112,2017
AL,0110240,2403943,Brundidge city,25,A,25241181,83770,9.746,0.032,31.717639000000002,-85.81755,2017
AL,0110456,2628581,Bucks CDP,57,S,1003273,92976,0.387,0.036000000000000004,31.016881,-88.026385,2017
AL,0111032,2405351,Butler town,43,A,14419997,0,5.568,0.0,32.095113,-88.21396999999999,2017
AL,0111416,2403965,Calera city,25,A,62391697,685490,24.09,0.265,33.122319,-86.745644,2017
AL,0111488,2628582,Calvert CDP,57,S,8879796,48801,3.429,0.019,31.15447,-88.01046,2017
AL,0111512,2403975,Camden city,25,A,10836796,34892,4.184,0.013000000000000001,31.998493,-87.28895,2017
AL,0111680,2405370,Camp Hill town,43,A,23283954,256575,8.99,0.099,32.797327,-85.655833,2017
AL,0112016,2403992,Carbon Hill city,25,A,14245476,221464,5.5,0.086,33.894991,-87.52207800000001,2017
AL,0112040,2405377,Cardiff town,43,A,649165,0,0.251,0.0,33.647188,-86.930557,2017
AL,0112070,2582667,Carlisle-Rockledge CDP,57,S,41929034,12741,16.189,0.005,34.114451,-86.124073,2017
AL,0112112,2628583,Carlton CDP,57,S,11706473,12193,4.52,0.005,31.348571000000003,-87.835666,2017
AL,0112160,2405380,Carolina town,43,A,2871453,20504,1.109,0.008,31.23415,-86.521001,2017
AL,0112304,2405384,Carrollton town,43,A,5331435,59271,2.0580000000000003,0.023,33.261903000000004,-88.09507099999999,2017
AL,0112496,2406236,Castleberry town,43,A,4431204,48957,1.7109999999999999,0.019,31.299678000000004,-87.029129,2017
AL,0112544,2628584,Catherine CDP,57,S,5944728,0,2.295,0.0,32.186170000000004,-87.469978,2017
AL,0112760,2406240,Cedar Bluff town,43,A,13177917,152247,5.088,0.059000000000000004,34.221422,-85.588565,2017
AL,0113264,2404020,Center Point city,25,A,16070717,21221,6.205,0.008,33.643903,-86.684567,2017
AL,0113648,2404025,Centre city,25,A,29628797,241373,11.44,0.09300000000000001,34.155363,-85.668842,2017
AL,0113672,2404026,Centreville city,25,A,24478656,378533,9.451,0.146,32.958798,-87.132305,2017
AL,0114008,2406259,Chatom town,43,A,27770887,0,10.722000000000001,0.0,31.469145,-88.24601899999999,2017
AL,0114104,2404037,Chelsea city,25,A,58899414,993754,22.741,0.384,33.324248,-86.635549,2017
AL,0114152,2406262,Cherokee town,43,A,5740564,704,2.2159999999999997,0.0,34.7577,-87.96558900000001,2017
AL,0114392,2404045,Chickasaw city,25,A,10894952,908483,4.207,0.35100000000000003,30.77145,-88.079697,2017
AL,0114464,2404048,Childersburg city,25,A,31936526,652240,12.331,0.252,33.292538,-86.340822,2017
AL,0114728,2582668,Choccolocco CDP,57,S,30159923,239225,11.645,0.092,33.674346,-85.710918,2017
AL,0114968,2628585,Chunchula CDP,57,S,4671130,21008,1.804,0.008,30.927194,-88.2082,2017
AL,0115064,2404051,Citronelle city,25,A,66939827,713078,25.846,0.275,31.097269,-88.249843,2017
AL,0115136,2404052,Clanton city,25,A,59168221,355967,22.845,0.13699999999999998,32.845572,-86.61949399999999,2017
AL,0115256,2404063,Clay city,25,A,25712609,159780,9.927999999999999,0.062,33.696582,-86.608166,2017
AL,0115304,2406273,Clayhatchee town,43,A,7039400,0,2.718,0.0,31.236925,-85.721478,2017
AL,0115376,2406274,Clayton town,43,A,17514190,0,6.7620000000000005,0.0,31.882227,-85.46042299999999,2017
AL,0115472,2406278,Cleveland town,43,A,20278207,131765,7.829,0.051,34.002179,-86.561352,2017
AL,0115640,2404082,Clio city,25,A,26070325,23254,10.066,0.009000000000000001,31.708515999999996,-85.611039,2017
AL,0116000,2406286,Coaling town,43,A,12986109,178716,5.013999999999999,0.069,33.169901,-87.349887,2017
AL,0116080,2582669,Coats Bend CDP,57,S,22144512,67515,8.55,0.026000000000000002,34.073273,-85.874602,2017
AL,0116240,2406288,Coffee Springs town,43,A,2030176,29256,0.784,0.011000000000000001,31.165836,-85.910898,2017
AL,0116264,2406289,Coffeeville town,43,A,11706601,0,4.52,0.0,31.766564000000002,-88.086049,2017
AL,0116312,2406291,Coker town,43,A,5271311,23040,2.035,0.009000000000000001,33.243752,-87.681329,2017
AL,0116600,2406296,Collinsville town,43,A,10141848,45133,3.9160000000000004,0.017,34.262192999999996,-85.867868,2017
AL,0116684,2406297,Colony town,43,A,5832129,22734,2.252,0.009000000000000001,33.941185,-86.901864,2017
AL,0116744,2406298,Columbia town,43,A,10181708,170212,3.931,0.066,31.295351,-85.110202,2017
AL,0116768,2404109,Columbiana city,25,A,45079165,261034,17.405,0.10099999999999999,33.191452000000005,-86.61561800000001,2017
AL,0116936,2402792,Concord CDP,57,S,8716229,44246,3.365,0.017,33.461985999999996,-87.040435,2017
AL,0117176,2406310,Coosada town,43,A,18328247,643867,7.077000000000001,0.249,32.495394,-86.326543,2017
AL,0117368,2404130,Cordova city,25,A,15103363,292352,5.831,0.113,33.761788,-87.199416,2017
AL,0117704,2727439,Cottondale CDP,57,S,8961371,46443,3.46,0.018000000000000002,33.193047,-87.454861,2017
AL,0117824,2406321,Cottonwood town,43,A,14950836,67217,5.773,0.026000000000000002,31.054033,-85.29956,2017
AL,0117968,2406322,County Line town,43,A,2500019,0,0.965,0.0,33.820895,-86.71973,2017
AL,0118040,2406323,Courtland town,43,A,7646446,64056,2.952,0.025,34.669946,-87.327892,2017
AL,0118088,2406329,Cowarts town,43,A,19196914,128863,7.412000000000001,0.05,31.206248,-85.30976899999999,2017
AL,0118304,2404149,Creola city,25,A,36878729,2374530,14.239,0.917,30.874343,-88.009442,2017
AL,0118856,2406341,Crossville town,43,A,21676691,1995,8.369,0.001,34.285486,-85.998756,2017
AL,0118952,2406344,Cuba town,43,A,10520901,18721,4.062,0.006999999999999999,32.440733,-88.374798,2017
AL,0118976,2404166,Cullman city,25,A,50148506,3094442,19.362000000000002,1.195,34.179337,-86.840793,2017
AL,0119024,2628586,Cullomburg CDP,57,S,13842493,0,5.345,0.0,31.713061,-88.291774,2017
AL,0119216,2424934,Cusseta town,43,A,6783080,0,2.6189999999999998,0.0,32.787653999999996,-85.305748,2017
AL,0119336,2404175,Dadeville city,25,A,41287412,219837,15.940999999999999,0.085,32.826114000000004,-85.776201,2017
AL,0119360,2404178,Daleville city,25,A,36392850,0,14.050999999999998,0.0,31.291503000000002,-85.711567,2017
AL,0119648,2404186,Daphne city,25,A,42679032,3179888,16.477999999999998,1.228,30.625545000000002,-87.895979,2017
AL,0119744,2406357,Dauphin Island town,43,A,16204185,413605152,6.256,159.694,30.250913,-88.17126800000001,2017
AL,0119816,2406360,Daviston town,43,A,23658278,77680,9.135,0.03,33.056839000000004,-85.63432900000001,2017
AL,0119912,2406361,Dayton town,43,A,2585204,0,0.998,0.0,32.350958,-87.641573,2017
AL,0120008,2406364,Deatsville town,43,A,12075421,81173,4.662,0.031,32.588972,-86.388986,2017
AL,0120104,2404206,Decatur city,25,A,140061835,17109800,54.078,6.606,34.572995,-86.989901,2017
AL,0120152,2628587,Deer Park CDP,57,S,8094329,161688,3.125,0.062,31.218369,-88.328023,2017
AL,0120272,2582670,Delta CDP,57,S,20167124,272009,7.787000000000001,0.105,33.440523999999996,-85.675905,2017
AL,0120296,2404214,Demopolis city,25,A,45941156,837165,17.738,0.32299999999999995,32.499938,-87.82542600000001,2017
AL,0120392,2406377,Detroit town,43,A,3434653,0,1.3259999999999998,0.0,34.027378999999996,-88.167831,2017
AL,0120955,2406384,Dodge City town,43,A,8913021,26837,3.4410000000000003,0.01,34.045414,-86.88266999999999,2017
AL,0121136,2404235,Dora city,25,A,19450630,22559,7.51,0.009000000000000001,33.729703,-87.083874,2017
AL,0121184,2404238,Dothan city,25,A,232163028,874641,89.639,0.33799999999999997,31.233697999999997,-85.406823,2017
AL,0121280,2406389,Double Springs town,43,A,10643727,57640,4.11,0.022000000000000002,34.151340000000005,-87.403488,2017
AL,0121328,2406390,Douglas town,43,A,8817652,21418,3.405,0.008,34.168258,-86.323386,2017
AL,0121448,2406394,Dozier town,43,A,7641032,31584,2.95,0.012,31.505407,-86.369235,2017
AL,0121890,2582671,Dunnavant CDP,57,S,46743321,2603388,18.048,1.005,33.508672999999995,-86.529843,2017
AL,0121952,2406408,Dutton town,43,A,2237817,0,0.8640000000000001,0.0,34.606152,-85.91185,2017
AL,0122216,2403531,East Brewton city,25,A,8826252,91015,3.408,0.035,31.091440000000002,-87.05534499999999,2017
AL,0122504,2628588,East Point CDP,57,S,2878380,20069,1.111,0.008,34.191023,-86.791785,2017
AL,0122816,2406420,Eclectic town,43,A,10864839,215212,4.195,0.083,32.640178999999996,-86.041096,2017
AL,0123032,2402443,Edgewater CDP,57,S,3140570,61545,1.213,0.024,33.530099,-86.95279000000001,2017
AL,0123176,2406427,Edwardsville town,43,A,42588934,0,16.444000000000003,0.0,33.88374,-85.414124,2017
AL,0123224,2582672,Egypt CDP,57,S,23335447,0,9.01,0.0,34.075938,-86.165054,2017
AL,0123296,2403549,Elba city,25,A,39725067,207250,15.338,0.08,31.417313,-86.077189,2017
AL,0123320,2406430,Elberta town,43,A,17823977,261887,6.882000000000001,0.10099999999999999,30.408209999999997,-87.555585,2017
AL,0123344,2406431,Eldridge town,43,A,1813734,0,0.7,0.0,33.922018,-87.620108,2017
AL,0123488,2406437,Elkmont town,43,A,4137995,28880,1.598,0.011000000000000001,34.932604,-86.97697099999999,2017
AL,0123656,2406444,Elmore town,43,A,10222981,176500,3.947,0.068,32.544337,-86.336446,2017
AL,0123872,2406447,Emelle town,43,A,546062,0,0.21100000000000002,0.0,32.728678,-88.316486,2017
AL,0123880,2582673,Emerald Mountain CDP,57,S,41665883,1715200,16.087,0.662,32.447641,-86.09461800000001,2017
AL,0124184,2403567,Enterprise city,25,A,79305775,174204,30.62,0.067,31.326898,-85.844021,2017
AL,0124256,2406456,Epes town,43,A,4970535,0,1.919,0.0,32.691249,-88.126852,2017
AL,0124472,2406465,Ethelsville town,43,A,1468611,0,0.5670000000000001,0.0,33.414066,-88.216093,2017
AL,0124568,2403575,Eufaula city,25,A,154143210,36156632,59.515,13.96,31.909937,-85.152709,2017
AL,0124616,2633143,Eunola CDP,57,S,4753113,37294,1.835,0.013999999999999999,31.031390000000002,-85.833966,2017
AL,0124664,2406470,Eutaw town,43,A,30907153,197192,11.933,0.076,32.846247,-87.90033199999999,2017
AL,0124688,2406472,Eva town,43,A,10740829,78981,4.147,0.03,34.326504,-86.76531800000001,2017
AL,0124808,2403584,Evergreen city,25,A,40412370,459686,15.603,0.177,31.442718,-86.95990400000001,2017
AL,0124880,2406476,Excel town,43,A,4264592,647,1.6469999999999998,0.0,31.426385999999997,-87.343663,2017
AL,0125120,2403587,Fairfield city,25,A,8987175,0,3.47,0.0,33.474705,-86.91934,2017
AL,0125216,2628589,Fairford CDP,57,S,7953598,0,3.071,0.0,31.178002000000003,-88.072784,2017
AL,0125240,2403590,Fairhope city,25,A,36046354,60926,13.918,0.024,30.52092,-87.879122,2017
AL,0125384,2406480,Fairview town,43,A,7013196,39930,2.708,0.015,34.24906,-86.688834,2017
AL,0125648,2406488,Falkville town,43,A,9786878,46596,3.779,0.018000000000000002,34.377019,-86.909547,2017
AL,0125816,2406495,Faunsdale town,43,A,717508,0,0.27699999999999997,0.0,32.457614,-87.593789,2017
AL,0125840,2403599,Fayette city,25,A,22143482,212108,8.55,0.08199999999999999,33.694215,-87.83116899999999,2017
AL,0125864,2582674,Fayetteville CDP,57,S,45178321,6034534,17.442999999999998,2.33,33.168096999999996,-86.442774,2017
AL,0126152,2628590,Fitzpatrick CDP,57,S,10780817,91583,4.162,0.035,32.210373,-85.873699,2017
AL,0126200,2406498,Five Points town,43,A,2667066,0,1.03,0.0,33.017311,-85.35159200000001,2017
AL,0126824,2406500,Flomaton town,43,A,13172106,287919,5.086,0.111,31.014815999999996,-87.256016,2017
AL,0126848,2406502,Florala town,43,A,27279015,1158376,10.532,0.447,31.022391,-86.318152,2017
AL,0126896,2403619,Florence city,25,A,67582627,544356,26.094,0.21,34.830323,-87.666139,2017
AL,0126992,2403626,Foley city,25,A,82697461,398817,31.93,0.154,30.397009000000004,-87.664211,2017
AL,0127088,2402493,Forestdale CDP,57,S,17479590,0,6.749,0.0,33.573679999999996,-86.900139,2017
AL,0127376,2406506,Forkland town,43,A,9049378,29059,3.4939999999999998,0.011000000000000001,32.647434999999994,-87.867436,2017
AL,0127520,2406507,Fort Deposit town,43,A,14663106,0,5.6610000000000005,0.0,31.986261,-86.56635899999999,2017
AL,0127616,2403645,Fort Payne city,25,A,145527964,924063,56.18899999999999,0.35700000000000004,34.457329,-85.689447,2017
AL,0127640,2402503,Fort Rucker CDP,57,S,28140106,46399,10.865,0.018000000000000002,31.342576,-85.716072,2017
AL,0128024,2406517,Franklin town,43,A,11573059,20086,4.468,0.008,32.455269,-85.807017,2017
AL,0128120,2582675,Fredonia CDP,57,S,31025631,67880,11.979000000000001,0.026000000000000002,32.967905,-85.296657,2017
AL,0128312,2406528,Frisco City town,43,A,10427493,24638,4.026,0.01,31.439484999999998,-87.40418199999999,2017
AL,0128408,2628591,Fruitdale CDP,57,S,11586507,43413,4.474,0.017,31.349790000000002,-88.410937,2017
AL,0128432,2406529,Fruithurst town,43,A,2590756,0,1.0,0.0,33.729539,-85.431249,2017
AL,0128504,2406530,Fulton town,43,A,6348281,1428,2.451,0.001,31.790989,-87.744212,2017
AL,0128552,2403671,Fultondale city,25,A,31591136,0,12.197000000000001,0.0,33.617645,-86.801594,2017
AL,0128672,2406534,Fyffe town,43,A,11411255,0,4.406000000000001,0.0,34.449615,-85.904969,2017
AL,0128696,2403673,Gadsden city,25,A,96638095,3059799,37.312,1.181,34.009563,-86.01564300000001,2017
AL,0128768,2406537,Gainesville town,43,A,4452046,0,1.719,0.0,32.814934,-88.160791,2017
AL,0128816,2582676,Gallant CDP,57,S,37246640,130033,14.380999999999998,0.05,34.001318,-86.230171,2017
AL,0128936,2406539,Gantt town,43,A,1682655,86431,0.65,0.033,31.410740000000004,-86.483524,2017
AL,0129032,2406541,Garden City town,43,A,7792122,66169,3.009,0.026000000000000002,34.019436999999996,-86.750564,2017
AL,0129056,2403681,Gardendale city,25,A,59552339,7891,22.993000000000002,0.003,33.676587,-86.809844,2017
AL,0129296,2406555,Gaylesville town,43,A,887876,0,0.34299999999999997,0.0,34.268103,-85.558468,2017
AL,0129392,2406556,Geiger town,43,A,2447757,11627,0.945,0.004,32.868715,-88.318154,2017
AL,0129464,2403687,Geneva city,25,A,41109631,487453,15.873,0.188,31.044885999999998,-85.876818,2017
AL,0129560,2406560,Georgiana town,43,A,16154540,0,6.237,0.0,31.639134000000002,-86.746762,2017
AL,0129608,2406561,Geraldine town,43,A,10144006,30156,3.917,0.012,34.359087,-86.002579,2017
AL,0129704,2406569,Gilbertown town,43,A,2018198,0,0.779,0.0,31.875790999999996,-88.319489,2017
AL,0129944,2406574,Glen Allen town,43,A,16973888,36826,6.553999999999999,0.013999999999999999,33.892108,-87.732682,2017
AL,0129992,2403701,Glencoe city,25,A,43844101,214211,16.928,0.083,33.939389,-85.934313,2017
AL,0130160,2406579,Glenwood town,43,A,1892924,9019,0.731,0.003,31.671265999999996,-86.173687,2017
AL,0130448,2406586,Goldville town,43,A,2552525,39434,0.986,0.015,33.084866999999996,-85.777982,2017
AL,0130496,2406587,Good Hope city,25,A,20548007,124722,7.934,0.048,34.109835,-86.865195,2017
AL,0130640,2406589,Goodwater town,43,A,16819854,75870,6.494,0.028999999999999998,33.060835,-86.05233299999999,2017
AL,0130736,2406590,Gordo town,43,A,8424802,10956,3.253,0.004,33.322286,-87.903681,2017
AL,0130760,2406591,Gordon town,43,A,8189961,0,3.162,0.0,31.143938000000002,-85.093249,2017
AL,0130808,2406593,Gordonville town,43,A,14354369,150144,5.542000000000001,0.057999999999999996,32.159178999999995,-86.704235,2017
AL,0130880,2406594,Goshen town,43,A,6634644,40200,2.562,0.016,31.720015000000004,-86.123245,2017
AL,0131000,2582677,Graham CDP,57,S,15162088,0,5.854,0.0,33.455191,-85.32308499999999,2017
AL,0131024,2402543,Grand Bay CDP,57,S,22467601,63278,8.675,0.024,30.472082,-88.344401,2017
AL,0131096,2406603,Grant town,43,A,4774997,10961,1.844,0.004,34.518173,-86.26043,2017
AL,0131348,2402547,Grayson Valley CDP,57,S,5195637,0,2.006,0.0,33.647028999999996,-86.641324,2017
AL,0131384,2403734,Graysville city,25,A,43964433,0,16.975,0.0,33.658367,-86.967366,2017
AL,0131720,2403743,Greensboro city,25,A,6156793,24951,2.377,0.01,32.700967999999996,-87.5937,2017
AL,0131912,2403748,Greenville city,25,A,55309894,455198,21.355,0.17600000000000002,31.843071999999996,-86.636951,2017
AL,0132056,2406621,Grimes town,43,A,3238259,0,1.25,0.0,31.299862,-85.450292,2017
AL,0132080,2406623,Grove Hill town,43,A,12860443,14126,4.965,0.005,31.702294000000002,-87.773845,2017
AL,0132224,2403768,Guin city,25,A,38732863,0,14.955,0.0,33.982923,-87.901804,2017
AL,0132248,2628592,Gulfcrest CDP,57,S,3921828,8275,1.514,0.003,30.991106,-88.242231,2017
AL,0132272,2403770,Gulf Shores city,25,A,70465803,12559039,27.206999999999997,4.849,30.273981,-87.70716800000001,2017
AL,0132416,2403774,Guntersville city,25,A,65750532,44109667,25.386,17.031,34.367946999999994,-86.252323,2017
AL,0132440,2406631,Gurley town,43,A,9105547,4113,3.516,0.002,34.702471,-86.37433,2017
AL,0132536,2406632,Gu-Win town,43,A,5028328,0,1.9409999999999998,0.0,33.944319,-87.870368,2017
AL,0132560,2406635,Hackleburg town,43,A,39560858,27325,15.275,0.011000000000000001,34.269355,-87.830402,2017
AL,0132584,2582678,Hackneyville CDP,57,S,23213873,39942,8.963,0.015,33.054654,-85.934423,2017
AL,0132656,2406636,Haleburg town,43,A,9940861,0,3.838,0.0,31.409976,-85.138068,2017
AL,0132704,2403782,Haleyville city,25,A,21550662,160420,8.321,0.062,34.233832,-87.617574,2017
AL,0132848,2403785,Hamilton city,25,A,98580690,37327,38.062,0.013999999999999999,34.138713,-87.970833,2017
AL,0132896,2406640,Hammondville town,43,A,12694841,32179,4.902,0.012,34.566264000000004,-85.640252,2017
AL,0132968,2403793,Hanceville city,25,A,11654706,38701,4.5,0.015,34.062647,-86.766591,2017
AL,0133256,2406645,Harpersville town,43,A,55015772,910877,21.241999999999997,0.35200000000000004,33.317725,-86.428431,2017
AL,0133424,2403808,Hartford city,25,A,16152099,37439,6.236000000000001,0.013999999999999999,31.105348,-85.691225,2017
AL,0133448,2403812,Hartselle city,25,A,42525681,217982,16.419,0.084,34.440434,-86.940364,2017
AL,0133472,2402570,Harvest CDP,57,S,31941938,164176,12.333,0.063,34.85507,-86.758643,2017
AL,0133544,2628593,Hatton CDP,57,S,3453276,20291,1.3330000000000002,0.008,34.560671,-87.41383499999999,2017
AL,0133640,2405806,Hayden town,43,A,10384651,3810,4.01,0.001,33.870777000000004,-86.803443,2017
AL,0133712,2405810,Hayneville town,43,A,4820399,41973,1.861,0.016,32.182595,-86.578588,2017
AL,0133808,2402573,Hazel Green CDP,57,S,25985876,35423,10.033,0.013999999999999999,34.923656,-86.567392,2017
AL,0133856,2404672,Headland city,25,A,78556178,25295,30.331,0.01,31.354974,-85.357031,2017
AL,0133904,2405811,Heath town,43,A,2305496,26326,0.89,0.01,31.344839,-86.46905,2017
AL,0133976,2404675,Heflin city,25,A,41665234,463512,16.087,0.179,33.6474,-85.569339,2017
AL,0134024,2404677,Helena city,25,A,53951530,833954,20.831,0.322,33.285635,-86.874488,2017
AL,0134096,2404680,Henagar city,25,A,57679595,86665,22.27,0.033,34.630641,-85.730918,2017
AL,0134480,2405832,Highland Lake town,43,A,4224630,925584,1.631,0.35700000000000004,33.894586,-86.42255300000001,2017
AL,0134490,2582679,Highland Lakes CDP,57,S,9732306,356456,3.758,0.138,33.398378,-86.651296,2017
AL,0134816,2405838,Hillsboro town,43,A,4872759,6209,1.881,0.002,34.642586,-87.178489,2017
AL,0134984,2582680,Hissop CDP,57,S,47282444,19512,18.256,0.008,32.869772999999995,-86.123622,2017
AL,0135130,2628594,Hobson CDP,57,S,7625399,78982,2.944,0.03,31.488725,-88.15092800000001,2017
AL,0135152,2405845,Hobson City town,43,A,2699661,3578,1.042,0.001,33.618801,-85.84614599999999,2017
AL,0135200,2405846,Hodges town,43,A,10689877,16413,4.127,0.006,34.334246,-87.92316,2017
AL,0135392,2404710,Hokes Bluff city,25,A,30895140,423908,11.929,0.16399999999999998,33.989682,-85.862873,2017
AL,0135512,2582681,Hollins CDP,57,S,30678891,80205,11.845,0.031,33.121757,-86.12696700000001,2017
AL,0135536,2582682,Hollis Crossroads CDP,57,S,32259647,4589,12.456,0.002,33.531333000000004,-85.652862,2017
AL,0135560,2405852,Holly Pond town,43,A,11491221,51521,4.437,0.02,34.167187,-86.611799,2017
AL,0135632,2405855,Hollywood town,43,A,23091737,38737,8.916,0.015,34.717279,-85.965579,2017
AL,0135704,2402595,Holt CDP,57,S,8194157,36475,3.1639999999999997,0.013999999999999999,33.229745,-87.48289399999999,2017
AL,0135752,2582683,Holtville CDP,57,S,55886987,9329884,21.578000000000003,3.602,32.630299,-86.328004,2017
AL,0135800,2404724,Homewood city,25,A,21600276,170982,8.34,0.066,33.45855,-86.80965,2017
AL,0135896,2404725,Hoover city,25,A,121969637,2523969,47.093,0.975,33.376948999999996,-86.80557900000001,2017
AL,0136088,2405862,Horn Hill town,43,A,6618374,135412,2.555,0.052000000000000005,31.238158000000002,-86.32510400000001,2017
AL,0136448,2404738,Hueytown city,25,A,50888410,533503,19.648,0.20600000000000002,33.408483000000004,-87.016583,2017
AL,0136592,2402603,Huguley CDP,57,S,21420962,0,8.271,0.0,32.843061999999996,-85.23963499999999,2017
AL,0137000,2404746,Huntsville city,25,A,552595525,3468621,213.358,1.339,34.699013,-86.67298000000001,2017
AL,0137096,2405877,Hurtsboro town,43,A,2674547,0,1.033,0.0,32.24009,-85.41467,2017
AL,0137264,2405879,Hytop town,43,A,5877476,0,2.269,0.0,34.906403000000005,-86.085258,2017
AL,0137312,2405880,Ider town,43,A,14077428,0,5.435,0.0,34.702161,-85.669042,2017
AL,0137465,2404759,Indian Springs Village city,25,A,10028822,90325,3.872,0.035,33.361209,-86.74685600000001,2017
AL,0137864,2404765,Irondale city,25,A,44845634,430098,17.315,0.166,33.539846999999995,-86.660539,2017
AL,0138032,2582684,Ivalee CDP,57,S,19301500,0,7.452000000000001,0.0,34.037203999999996,-86.147182,2017
AL,0138152,2404775,Jackson city,25,A,40504186,498694,15.639000000000001,0.193,31.532321000000003,-87.891183,2017
AL,0138248,2405902,Jacksons' Gap town,43,A,22055444,50818,8.516,0.02,32.884019,-85.815046,2017
AL,0138272,2404780,Jacksonville city,25,A,28365902,24984,10.952,0.01,33.809108,-85.753918,2017
AL,0138416,2404790,Jasper city,25,A,73927676,230534,28.544,0.08900000000000001,33.856035,-87.270268,2017
AL,0138608,2404801,Jemison city,25,A,29384581,188725,11.345,0.073,32.970705,-86.73307,2017
AL,0139064,2628595,Joppa CDP,57,S,5036131,70361,1.944,0.027000000000000003,34.29955,-86.54994599999999,2017
AL,0139280,2405930,Kansas town,43,A,2632975,7172,1.0170000000000001,0.003,33.902808,-87.556598,2017
AL,0139472,2405933,Kellyton town,43,A,2504087,1487,0.9670000000000001,0.001,32.979188,-86.03460799999999,2017
AL,0139520,2405936,Kennedy town,43,A,7948839,0,3.069,0.0,33.580890999999994,-87.986179,2017
AL,0139784,2405945,Killen town,43,A,5243523,13074,2.025,0.005,34.860954,-87.52934599999999,2017
AL,0139856,2405948,Kimberly city,25,A,15147824,0,5.849,0.0,33.775851,-86.79708199999999,2017
AL,0140072,2405953,Kinsey town,43,A,31328733,0,12.095999999999998,0.0,31.292599,-85.335363,2017
AL,0140096,2405954,Kinston town,43,A,12671300,62341,4.8919999999999995,0.024,31.219603999999997,-86.170075,2017
AL,0140648,2403183,Ladonia CDP,57,S,8115042,10357,3.133,0.004,32.460640999999995,-85.096535,2017
AL,0140672,2404846,La Fayette city,25,A,22940321,71565,8.857000000000001,0.027999999999999997,32.899427,-85.400795,2017
AL,0140888,2405980,Lakeview town,43,A,1636126,0,0.632,0.0,34.391628999999995,-85.97570400000001,2017
AL,0140928,2405977,Lake View town,43,A,5434386,606017,2.0980000000000003,0.23399999999999999,33.286497999999995,-87.13028,2017
AL,0141296,2404883,Lanett city,25,A,16167440,0,6.242000000000001,0.0,32.857768,-85.207761,2017
AL,0141368,2405985,Langston town,43,A,12755795,8595968,4.925,3.319,34.545063,-86.09335,2017
AL,0141968,2404905,Leeds city,25,A,58231611,566100,22.483,0.21899999999999997,33.546851000000004,-86.57178,2017
AL,0142016,2405999,Leesburg town,43,A,16617956,48343,6.416,0.019,34.178627,-85.777897,2017
AL,0142160,2406001,Leighton town,43,A,2550152,0,0.985,0.0,34.698625,-87.529116,2017
AL,0142304,2628596,Leroy CDP,57,S,30846566,174336,11.91,0.067,31.494937,-87.972782,2017
AL,0142352,2406007,Lester town,43,A,4738825,5534,1.83,0.002,34.982751,-87.155535,2017
AL,0142472,2406009,Level Plains town,43,A,7923638,0,3.0589999999999997,0.0,31.30707,-85.768755,2017
AL,0142640,2406013,Lexington town,43,A,8380002,12555,3.236,0.005,34.959351,-87.37283000000001,2017
AL,0142808,2406018,Libertyville town,43,A,1347464,7932,0.52,0.003,31.24398,-86.46015,2017
AL,0142928,2633315,Lillian CDP,57,S,4944913,4196328,1.909,1.62,30.418903999999998,-87.420751,2017
AL,0143120,2404929,Lincoln city,25,A,65002298,463884,25.098000000000003,0.179,33.563631,-86.021697,2017
AL,0143240,2404934,Linden city,25,A,9268325,88546,3.5789999999999997,0.034,32.301358,-87.792564,2017
AL,0143264,2404935,Lineville city,25,A,23152223,179561,8.939,0.069,33.312832,-85.752278,2017
AL,0143336,2404936,Lipscomb city,25,A,3041686,0,1.1740000000000002,0.0,33.426054,-86.92602600000001,2017
AL,0143384,2406024,Lisman town,43,A,6697384,0,2.5860000000000003,0.0,32.171729,-88.284092,2017
AL,0143648,2406027,Littleville town,43,A,12877594,116619,4.9719999999999995,0.045,34.595132,-87.670739,2017
AL,0143720,2404942,Livingston city,25,A,18465825,215417,7.13,0.083,32.595549,-88.186929,2017
AL,0143744,2406032,Loachapoka town,43,A,2941323,19893,1.136,0.008,32.607946000000005,-85.598479,2017
AL,0143816,2406033,Lockhart town,43,A,2818242,103127,1.088,0.04,31.013011,-86.350273,2017
AL,0143888,2406036,Locust Fork town,43,A,9993688,27165,3.859,0.01,33.876794,-86.647093,2017
AL,0144160,2582685,Lookout Mountain CDP,57,S,39447721,37158,15.231,0.013999999999999999,34.115916,-85.965464,2017
AL,0144344,2406049,Louisville town,43,A,7118466,0,2.748,0.0,31.781046999999997,-85.558336,2017
AL,0144536,2406051,Lowndesboro town,43,A,2050742,0,0.792,0.0,32.276422,-86.610848,2017
AL,0144608,2406055,Loxley town,43,A,82494407,956592,31.851,0.369,30.684588,-87.739213,2017
AL,0144728,2404977,Luverne city,25,A,40525807,70615,15.647,0.027000000000000003,31.718940999999997,-86.269082,2017
AL,0144800,2406065,Lynn town,43,A,27586589,35555,10.651,0.013999999999999999,34.057592,-87.548639,2017
AL,0145208,2403268,McDonald Chapel CDP,57,S,2778538,10833,1.073,0.004,33.518576,-86.938462,2017
AL,0145316,2633142,Macedonia CDP,57,S,10226512,0,3.948,0.0,33.403139,-88.239221,2017
AL,0145472,2406131,McIntosh town,43,A,2579767,0,0.996,0.0,31.264957,-88.028369,2017
AL,0145496,2406134,McKenzie town,43,A,9644432,43121,3.7239999999999998,0.017,31.546470000000003,-86.725954,2017
AL,0145640,2406137,McMullen town,43,A,283764,0,0.11,0.0,33.1481,-88.175749,2017
AL,0145784,2404989,Madison city,25,A,76658173,342332,29.598000000000003,0.132,34.710533,-86.76228,2017
AL,0145904,2406075,Madrid town,43,A,5025807,0,1.94,0.0,31.035771,-85.39784499999999,2017
AL,0146072,2406080,Magnolia Springs town,43,A,2327883,162829,0.899,0.063,30.403409999999997,-87.77589499999999,2017
AL,0146192,2628597,Malcolm CDP,57,S,6110284,65858,2.359,0.025,31.198696999999996,-88.001065,2017
AL,0146264,2406084,Malvern town,43,A,36313079,12962,14.020999999999999,0.005,31.143697999999997,-85.522973,2017
AL,0146504,2406093,Maplesville town,43,A,8463710,104846,3.2680000000000002,0.04,32.788282,-86.876651,2017
AL,0146600,2582686,Marbury CDP,57,S,59967130,199873,23.153000000000002,0.077,32.683609000000004,-86.475484,2017
AL,0146696,2406094,Margaret town,43,A,25438710,39224,9.822000000000001,0.015,33.67284,-86.463942,2017
AL,0146768,2405020,Marion city,25,A,27365217,242538,10.565999999999999,0.094,32.631968,-87.31733299999999,2017
AL,0147728,2406119,Maytown town,43,A,6945396,0,2.682,0.0,33.549015999999995,-86.999872,2017
AL,0147740,2403273,Meadowbrook CDP,57,S,11116553,33714,4.292,0.013000000000000001,33.390614,-86.70817199999999,2017
AL,0147848,2628598,Megargel CDP,57,S,1781777,0,0.688,0.0,31.378140999999996,-87.430649,2017
AL,0148052,2406145,Memphis town,43,A,1002838,11307,0.387,0.004,33.137044,-88.305942,2017
AL,0148064,2406147,Mentone town,43,A,12087987,27272,4.667,0.011000000000000001,34.563190999999996,-85.589706,2017
AL,0148112,2403279,Meridianville CDP,57,S,40249897,136955,15.540999999999999,0.053,34.874913,-86.580559,2017
AL,0148376,2404254,Midfield city,25,A,6872873,0,2.654,0.0,33.4552,-86.92264399999999,2017
AL,0148400,2406160,Midland City town,43,A,15682078,0,6.055,0.0,31.315689000000003,-85.493686,2017
AL,0148424,2406161,Midway town,43,A,8570511,0,3.3089999999999997,0.0,32.076373,-85.524417,2017
AL,0148616,2403291,Mignon CDP,57,S,5185134,88368,2.002,0.034,33.18658,-86.256886,2017
AL,0148712,2404261,Millbrook city,25,A,33202104,740669,12.819,0.28600000000000003,32.501474,-86.373914,2017
AL,0148784,2582687,Millerville CDP,57,S,17349169,57261,6.699,0.022000000000000002,33.191458000000004,-85.929828,2017
AL,0148808,2406164,Millport town,43,A,14226300,35345,5.492999999999999,0.013999999999999999,33.555935,-88.082382,2017
AL,0148832,2406165,Millry town,43,A,19398790,64927,7.49,0.025,31.621199,-88.327956,2017
AL,0149072,2403295,Minor CDP,57,S,1814797,0,0.701,0.0,33.53895,-86.94026099999999,2017
AL,0150000,2404278,Mobile city,25,A,361035750,105307734,139.39700000000002,40.66,30.668426,-88.100226,2017
AL,0150192,2404285,Monroeville city,25,A,34635691,18229,13.373,0.006999999999999999,31.516222999999997,-87.327714,2017
AL,0150312,2404287,Montevallo city,25,A,32317460,717257,12.478,0.27699999999999997,33.125869,-86.846924,2017
AL,0151000,2404289,Montgomery city,25,A,413973049,4426961,159.836,1.709,32.347174,-86.266114,2017
AL,0151096,2404295,Moody city,25,A,63440010,819503,24.494,0.316,33.603431,-86.493783,2017
AL,0151216,2403306,Moores Mill CDP,57,S,35235974,428312,13.605,0.165,34.852143,-86.52038,2017
AL,0151264,2406188,Mooresville town,43,A,307600,0,0.11900000000000001,0.0,34.626964,-86.879997,2017
AL,0151456,2406195,Morris town,43,A,7843160,28998,3.028,0.011000000000000001,33.746735,-86.804438,2017
AL,0151469,2582688,Morrison Crossroads CDP,57,S,13444306,191484,5.191,0.07400000000000001,33.417996,-85.488284,2017
AL,0151520,2406201,Mosses town,43,A,12275052,95648,4.739,0.037000000000000005,32.188758,-86.679435,2017
AL,0151600,2404314,Moulton city,25,A,15525182,37270,5.994,0.013999999999999999,34.488302000000004,-87.28270699999999,2017
AL,0151648,2406202,Moundville town,43,A,11875640,152689,4.585,0.059000000000000004,32.996542,-87.627545,2017
AL,0151696,2404329,Mountain Brook city,25,A,33216134,49903,12.825,0.019,33.491488000000004,-86.73447,2017
AL,0152320,2582689,Mount Olive CDP,57,S,21545249,8863,8.318999999999999,0.003,33.078474,-86.133291,2017
AL,0152344,2403310,Mount Olive CDP,57,S,23878637,12514,9.22,0.005,33.669286,-86.87549,2017
AL,0152608,2406213,Mount Vernon town,43,A,14195441,293790,5.481,0.113,31.087727,-88.013166,2017
AL,0152680,2628599,Movico CDP,57,S,2027795,0,0.7829999999999999,0.0,31.062763,-88.026619,2017
AL,0152776,2406218,Mulga town,43,A,1662223,0,0.642,0.0,33.553332,-86.973361,2017
AL,0152848,2424936,Munford town,43,A,5733185,3279,2.214,0.001,33.529059000000004,-85.952543,2017
AL,0153016,2404345,Muscle Shoals city,25,A,42811747,53102,16.53,0.021,34.743691999999996,-87.633774,2017
AL,0153112,2406222,Myrtlewood town,43,A,6721488,0,2.595,0.0,32.252088,-87.94926099999999,2017
AL,0153208,2628600,Nanafalia CDP,57,S,5619406,0,2.17,0.0,32.111393,-87.995757,2017
AL,0153232,2582690,Nances Creek CDP,57,S,15041335,21045,5.807,0.008,33.85465,-85.684728,2017
AL,0153256,2406224,Napier Field town,43,A,662501,0,0.256,0.0,31.314916999999998,-85.454962,2017
AL,0153376,2406966,Natural Bridge town,43,A,1123321,0,0.434,0.0,34.090353,-87.60140899999999,2017
AL,0153400,2406967,Nauvoo town,43,A,2562449,6240,0.9890000000000001,0.002,33.984386,-87.48544,2017
AL,0153448,2406969,Nectar town,43,A,4689471,35874,1.811,0.013999999999999999,33.979779,-86.620614,2017
AL,0153472,2406970,Needham town,43,A,1482480,0,0.5720000000000001,0.0,31.987,-88.336563,2017
AL,0153784,2406982,Newbern town,43,A,3010370,6872,1.162,0.003,32.591671999999996,-87.535614,2017
AL,0153856,2406973,New Brockton town,43,A,20683052,35486,7.986000000000001,0.013999999999999999,31.367722999999998,-85.92518000000001,2017
AL,0154168,2404361,New Hope city,25,A,22423246,148593,8.658,0.057,34.537971999999996,-86.41237199999999,2017
AL,0154312,2403332,New Market CDP,57,S,45403018,78284,17.53,0.03,34.892334999999996,-86.425818,2017
AL,0154432,2406980,New Site town,43,A,25551805,44275,9.866,0.017,33.026041,-85.784536,2017
AL,0154480,2406989,Newton town,43,A,36904356,73592,14.249,0.027999999999999997,31.341229,-85.588307,2017
AL,0154582,2582691,New Union CDP,57,S,31556962,10955,12.184000000000001,0.004,34.133682,-86.228002,2017
AL,0154600,2406991,Newville town,43,A,10406795,0,4.018,0.0,31.420603999999997,-85.33669,2017
AL,0155044,2407004,North Courtland town,43,A,1715325,22321,0.662,0.009000000000000001,34.680046000000004,-87.30572099999999,2017
AL,0155152,2407006,North Johns town,43,A,526683,0,0.203,0.0,33.368055,-87.100888,2017
AL,0155200,2404400,Northport city,25,A,43353267,1016012,16.739,0.392,33.257975,-87.59647,2017
AL,0155440,2407012,Notasulga town,43,A,35753940,388325,13.805,0.15,32.555409000000004,-85.668577,2017
AL,0155752,2407015,Oak Grove town,43,A,4606524,5004,1.7790000000000001,0.002,33.190359,-86.303727,2017
AL,0155848,2407019,Oak Hill town,43,A,1451274,0,0.56,0.0,31.92162,-87.085234,2017
AL,0155992,2407028,Oakman town,43,A,7981750,22558,3.082,0.009000000000000001,33.714321999999996,-87.388699,2017
AL,0156400,2407036,Odenville town,43,A,36176037,241048,13.968,0.09300000000000001,33.700875,-86.423371,2017
AL,0156472,2407037,Ohatchee town,43,A,15270086,105149,5.896,0.040999999999999995,33.789764,-86.029055,2017
AL,0157000,2404433,Oneonta city,25,A,40795613,149959,15.751,0.057999999999999996,33.947082,-86.48951,2017
AL,0157024,2407049,Onycha town,43,A,2050856,24551,0.792,0.009000000000000001,31.225693,-86.27602399999999,2017
AL,0157048,2404435,Opelika city,25,A,154497144,2388300,59.652,0.922,32.660739,-85.37889,2017
AL,0157120,2404437,Opp city,25,A,61289213,2396857,23.664,0.925,31.284375,-86.257442,2017
AL,0157144,2404439,Orange Beach city,25,A,38077386,3226457,14.702,1.246,30.293814,-87.586069,2017
AL,0157240,2407056,Orrville town,43,A,2684768,0,1.037,0.0,32.306769,-87.245447,2017
AL,0157384,2582692,Our Town CDP,57,S,30766140,93654,11.879000000000001,0.036000000000000004,32.842211,-85.967035,2017
AL,0157504,2407060,Owens Cross Roads town,43,A,21437783,309445,8.277000000000001,0.11900000000000001,34.585458,-86.455027,2017
AL,0157576,2404451,Oxford city,25,A,82257280,902791,31.76,0.349,33.598433,-85.872336,2017
AL,0157648,2404456,Ozark city,25,A,88297286,639149,34.092,0.247,31.451615000000004,-85.645035,2017
AL,0157696,2407066,Paint Rock town,43,A,1122648,24971,0.433,0.01,34.660934000000005,-86.333952,2017
AL,0157912,2628601,Panola CDP,57,S,1858530,3231,0.718,0.001,32.946819,-88.262264,2017
AL,0158272,2407076,Parrish town,43,A,5421088,0,2.093,0.0,33.732321,-87.28012700000001,2017
AL,0158848,2404497,Pelham city,25,A,100388126,1311244,38.76,0.506,33.32183,-86.74219699999999,2017
AL,0158896,2404499,Pell City city,25,A,64434310,7139017,24.878,2.7560000000000002,33.560311999999996,-86.263634,2017
AL,0158968,2407098,Pennington town,43,A,5081834,0,1.962,0.0,32.206959999999995,-88.055777,2017
AL,0159016,2582693,Penton CDP,57,S,23661886,93782,9.136000000000001,0.036000000000000004,33.009832,-85.474824,2017
AL,0159064,2633316,Perdido CDP,57,S,28846204,77325,11.138,0.03,31.005692,-87.630112,2017
AL,0159088,2560543,Perdido Beach town,43,A,3068159,1105,1.185,0.0,30.353879,-87.504788,2017
AL,0159232,2628602,Peterman CDP,57,S,1094490,0,0.423,0.0,31.583669,-87.263042,2017
AL,0159328,2407104,Petrey town,43,A,1900154,42953,0.7340000000000001,0.017,31.852159999999998,-86.20400699999999,2017
AL,0159472,2404510,Phenix City city,25,A,72514542,325619,27.998,0.126,32.461669,-85.025021,2017
AL,0159496,2407105,Phil Campbell town,43,A,10519452,39480,4.062,0.015,34.351539,-87.706319,2017
AL,0159592,2407107,Pickensville town,43,A,20011648,6039614,7.727,2.332,33.235782,-88.289443,2017
AL,0159640,2404515,Piedmont city,25,A,25410069,172091,9.811,0.066,33.926035,-85.615442,2017
AL,0159760,2407109,Pike Road town,43,A,85117014,796161,32.864000000000004,0.307,32.284283,-85.96007,2017
AL,0159832,2407112,Pinckard town,43,A,13813653,21718,5.332999999999999,0.008,31.318989000000002,-85.537836,2017
AL,0159880,2407114,Pine Apple town,43,A,8029654,0,3.1,0.0,31.872155,-86.989059,2017
AL,0160240,2407115,Pine Hill town,43,A,9885075,0,3.8169999999999997,0.0,31.985884000000002,-87.58751600000001,2017
AL,0160264,2582694,Pine Level CDP,57,S,64250372,132799,24.807,0.051,32.579539000000004,-86.454318,2017
AL,0160372,2407119,Pine Ridge town,43,A,3361084,916,1.298,0.0,34.44795,-85.784018,2017
AL,0160648,2424931,Pinson city,25,A,29452777,71377,11.372,0.027999999999999997,33.709262,-86.663613,2017
AL,0160720,2407128,Pisgah town,43,A,12433062,0,4.8,0.0,34.684366,-85.84600999999999,2017
AL,0161008,2404538,Pleasant Grove city,25,A,25619937,0,9.892000000000001,0.0,33.493615000000005,-86.978193,2017
AL,0161038,2407134,Pleasant Groves town,43,A,9443257,7419,3.6460000000000004,0.003,34.737619,-86.197637,2017
AL,0161488,2403433,Point Clear CDP,57,S,12450198,72077,4.8069999999999995,0.027999999999999997,30.486226000000002,-87.911547,2017
AL,0161536,2407141,Pollard town,43,A,2880392,6856,1.112,0.003,31.023877000000002,-87.172978,2017
AL,0162075,2407153,Powell town,43,A,12853511,0,4.963,0.0,34.532534000000005,-85.897879,2017
AL,0162328,2404568,Prattville city,25,A,87459363,2320856,33.768,0.8959999999999999,32.461908,-86.457385,2017
AL,0162472,2407160,Priceville town,43,A,14444261,81429,5.577000000000001,0.031,34.529613,-86.88211899999999,2017
AL,0162496,2404573,Prichard city,25,A,65542191,527534,25.305999999999997,0.204,30.773336999999998,-88.131416,2017
AL,0162688,2407165,Providence town,43,A,4520210,0,1.745,0.0,32.342386,-87.776115,2017
AL,0162952,2628603,Putnam CDP,57,S,24565136,0,9.485,0.0,32.018084,-88.033057,2017
AL,0163216,2407169,Ragland town,43,A,43481619,128940,16.788,0.05,33.748325,-86.135927,2017
AL,0163288,2404588,Rainbow City city,25,A,65909143,381974,25.448,0.147,33.928777000000004,-86.084228,2017
AL,0163336,2404589,Rainsville city,25,A,53415701,36474,20.624000000000002,0.013999999999999999,34.494364000000004,-85.836505,2017
AL,0163408,2407173,Ranburne town,43,A,4107909,0,1.5859999999999999,0.0,33.525853000000005,-85.339013,2017
AL,0163495,2582695,Ray CDP,57,S,21247615,115793,8.204,0.045,32.88923,-86.024613,2017
AL,0163576,2404601,Red Bay city,25,A,25256476,236133,9.752,0.091,34.436097,-88.136515,2017
AL,0163730,2582696,Redland CDP,57,S,62527203,743178,24.142,0.287,32.481426,-86.143759,2017
AL,0163768,2407185,Red Level town,43,A,4977707,12963,1.922,0.005,31.406710999999998,-86.606217,2017
AL,0163912,2403466,Redstone Arsenal CDP,57,S,19888606,42847,7.678999999999999,0.017,34.687763000000004,-86.661268,2017
AL,0163984,2407191,Reece City town,43,A,9207429,0,3.555,0.0,34.077307,-86.034461,2017
AL,0164040,2582697,Reeltown CDP,57,S,19547557,72437,7.547000000000001,0.027999999999999997,32.574211,-85.819562,2017
AL,0164104,2407194,Reform town,43,A,20741848,73591,8.008,0.027999999999999997,33.378214,-88.017297,2017
AL,0164152,2407196,Rehobeth town,43,A,19367234,80045,7.478,0.031,31.124507,-85.439607,2017
AL,0164368,2407200,Repton town,43,A,2479555,18493,0.9570000000000001,0.006999999999999999,31.409715999999996,-87.23893100000001,2017
AL,0164656,2407216,Ridgeville town,43,A,2125531,0,0.821,0.0,34.056929,-86.102874,2017
AL,0164776,2407223,River Falls town,43,A,17703764,675339,6.835,0.261,31.352396999999996,-86.544609,2017
AL,0164920,2407224,Riverside city,25,A,22442568,4513422,8.665,1.743,33.616394,-86.204357,2017
AL,0165016,2407226,Riverview town,43,A,3735330,55330,1.442,0.021,31.061140999999996,-87.077421,2017
AL,0165040,2404627,Roanoke city,25,A,48526076,988793,18.736,0.382,33.145305,-85.36952600000001,2017
AL,0165208,2404632,Robertsdale city,25,A,14120518,34034,5.452000000000001,0.013000000000000001,30.557139000000003,-87.704723,2017
AL,0165412,2403485,Rock Creek CDP,57,S,7811250,0,3.016,0.0,33.477227,-87.081249,2017
AL,0165472,2407230,Rockford town,43,A,8569713,28596,3.3089999999999997,0.011000000000000001,32.896865999999996,-86.208345,2017
AL,0165592,2403487,Rock Mills CDP,57,S,16381849,11243,6.325,0.004,33.15994,-85.28107,2017
AL,0165784,2632283,Rockville CDP,57,S,7268656,0,2.806,0.0,31.405776,-87.844212,2017
AL,0166216,2407235,Rogersville town,43,A,7855364,6344,3.033,0.002,34.827714,-87.284092,2017
AL,0166408,2407242,Rosa town,43,A,9758714,14775,3.7680000000000002,0.006,33.992756,-86.500325,2017
AL,0167056,2404657,Russellville city,25,A,34721730,275054,13.405999999999999,0.106,34.505736999999996,-87.728192,2017
AL,0167176,2407263,Rutledge town,43,A,15180932,0,5.861000000000001,0.0,31.724071999999996,-86.302008,2017
AL,0167536,2407266,St. Florian town,43,A,9515533,51477,3.674,0.02,34.866847,-87.62375300000001,2017
AL,0167584,2628605,St. Stephens CDP,57,S,25581948,350255,9.877,0.135,31.571111,-88.05283399999999,2017
AL,0167608,2402815,Saks CDP,57,S,31473195,104617,12.152000000000001,0.04,33.711401,-85.853698,2017
AL,0167800,2405412,Samson city,25,A,9370773,24545,3.6180000000000003,0.009000000000000001,31.112416999999997,-86.046735,2017
AL,0167920,2407282,Sand Rock town,43,A,11291050,0,4.359,0.0,34.2302,-85.771561,2017
AL,0168016,2407286,Sanford town,43,A,10819338,108786,4.177,0.042,31.298819,-86.398848,2017
AL,0168160,2405422,Saraland city,25,A,79465469,569974,30.682,0.22,30.854574,-88.10990600000001,2017
AL,0168280,2407291,Sardis City town,43,A,20367863,40296,7.864,0.016,34.172413,-86.11910400000001,2017
AL,0168352,2405427,Satsuma city,25,A,18995519,122488,7.334,0.047,30.857874,-88.063383,2017
AL,0168736,2405433,Scottsboro city,25,A,131195529,17497800,50.655,6.756,34.64462,-86.04815500000001,2017
AL,0169000,2407306,Section town,43,A,11842421,0,4.572,0.0,34.581644,-85.984942,2017
AL,0169120,2405441,Selma city,25,A,35765689,1537275,13.809000000000001,0.594,32.417019,-87.035802,2017
AL,0169180,2402837,Selmont-West Selmont CDP,57,S,8491023,100747,3.278,0.039,32.378249,-87.00689799999999,2017
AL,0169240,2680031,Semmes city,25,A,26626481,65592,10.280999999999999,0.025,30.7722,-88.20806400000001,2017
AL,0169648,2405452,Sheffield city,25,A,16497007,232598,6.37,0.09,34.755494,-87.701265,2017
AL,0169672,2582698,Shelby CDP,57,S,48586750,657199,18.759,0.254,33.106882,-86.585403,2017
AL,0169840,2407327,Shiloh town,43,A,4435554,0,1.713,0.0,34.463763,-85.877994,2017
AL,0169978,2582699,Shoal Creek CDP,57,S,13002564,733860,5.02,0.28300000000000003,33.430763,-86.610925,2017
AL,0170128,2407329,Shorter town,43,A,11758196,71299,4.54,0.027999999999999997,32.411509,-85.972756,2017
AL,0170416,2407336,Silas town,43,A,13485230,0,5.207000000000001,0.0,31.767802000000003,-88.325923,2017
AL,0170536,2407342,Silverhill town,43,A,3252167,7386,1.256,0.003,30.545359,-87.750557,2017
AL,0170632,2632284,Sims Chapel CDP,57,S,14771553,79457,5.702999999999999,0.031,31.249254999999998,-88.142971,2017
AL,0170704,2407346,Sipsey town,43,A,1244552,3638,0.48100000000000004,0.001,33.822119,-87.082918,2017
AL,0170896,2407348,Skyline town,43,A,10311412,30283,3.9810000000000003,0.012,34.798524,-86.12243000000001,2017
AL,0171040,2405471,Slocomb city,25,A,24575329,27871,9.488999999999999,0.011000000000000001,31.112126,-85.59866,2017
AL,0171190,2405476,Smiths Station city,25,A,17912106,69041,6.916,0.027000000000000003,32.534662,-85.11134100000001,2017
AL,0171201,2402861,Smoke Rise CDP,57,S,15007353,32672,5.794,0.013000000000000001,33.879942,-86.824683,2017
AL,0171280,2407358,Snead town,43,A,14036369,48255,5.419,0.019,34.119476,-86.389223,2017
AL,0171496,2407365,Somerville town,43,A,7110223,9893,2.745,0.004,34.467006,-86.795843,2017
AL,0171832,2405499,Southside city,25,A,49192571,427619,18.993,0.165,33.890840999999995,-86.01801999999999,2017
AL,0171900,2407373,South Vinemont town,43,A,2254592,24159,0.871,0.009000000000000001,34.233907,-86.866026,2017
AL,0171976,2405500,Spanish Fort city,25,A,78350114,12193260,30.250999999999998,4.708,30.722714,-87.865845,2017
AL,0172408,2582700,Spring Garden CDP,57,S,5867219,0,2.265,0.0,33.972965,-85.555756,2017
AL,0172600,2405516,Springville city,25,A,23038484,101163,8.895,0.039,33.743746,-86.428691,2017
AL,0172672,2628604,Spruce Pine CDP,57,S,2403095,2825,0.9279999999999999,0.001,34.39287,-87.729597,2017
AL,0172720,2582701,Standing Rock CDP,57,S,8256662,102583,3.188,0.04,33.08569,-85.23984899999999,2017
AL,0172816,2633317,Stapleton CDP,57,S,27848531,24155,10.752,0.009000000000000001,30.735558,-87.79772700000001,2017
AL,0172888,2406664,Steele town,43,A,17387184,71437,6.712999999999999,0.027999999999999997,33.941378,-86.192107,2017
AL,0173056,2582702,Sterrett CDP,57,S,59385420,1678636,22.929000000000002,0.648,33.442198,-86.461045,2017
AL,0173080,2406667,Stevenson city,25,A,19929473,1053473,7.695,0.40700000000000003,34.876796999999996,-85.81435,2017
AL,0173152,2582703,Stewartville CDP,57,S,62521495,337888,24.14,0.13,33.075532,-86.260693,2017
AL,0173272,2633318,Stockton CDP,57,S,24197952,743569,9.343,0.287,31.00297,-87.872488,2017
AL,0173728,2405539,Sulligent city,25,A,20290838,0,7.834,0.0,33.891189000000004,-88.126633,2017
AL,0173848,2405542,Sumiton city,25,A,13491833,57136,5.209,0.022000000000000002,33.749269,-87.046903,2017
AL,0173872,2406681,Summerdale town,43,A,25998618,96469,10.038,0.037000000000000005,30.476740999999997,-87.687561,2017
AL,0174160,2406699,Susan Moore town,43,A,13546873,41715,5.23,0.016,34.091999,-86.434156,2017
AL,0174304,2406702,Sweet Water town,43,A,5242639,0,2.024,0.0,32.104903,-87.86118499999999,2017
AL,0174352,2405558,Sylacauga city,25,A,52447835,420768,20.25,0.162,33.188919,-86.274757,2017
AL,0174400,2406707,Sylvania town,43,A,22841332,459682,8.818999999999999,0.177,34.562043,-85.80471999999999,2017
AL,0174424,2406706,Sylvan Springs town,43,A,22496474,0,8.686,0.0,33.528628000000005,-87.03120600000001,2017
AL,0174592,2405562,Talladega city,25,A,66056337,209972,25.504,0.081,33.431757,-86.09945400000001,2017
AL,0174616,2406710,Talladega Springs town,43,A,3187158,28965,1.2309999999999999,0.011000000000000001,33.120452,-86.437761,2017
AL,0174688,2405565,Tallassee city,25,A,27817447,1526561,10.74,0.589,32.532665,-85.891993,2017
AL,0174976,2405570,Tarrant city,25,A,16440360,137671,6.348,0.053,33.592897,-86.766253,2017
AL,0175096,2406717,Taylor town,43,A,19089060,210754,7.37,0.081,31.168810999999998,-85.47579,2017
AL,0175768,2402926,Theodore CDP,57,S,20701823,5151,7.992999999999999,0.002,30.538686,-88.187573,2017
AL,0175936,2406729,Thomaston town,43,A,5213996,0,2.013,0.0,32.268277000000005,-87.623706,2017
AL,0175960,2405583,Thomasville city,25,A,22612381,2789,8.731,0.001,31.910455,-87.743024,2017
AL,0176080,2406731,Thorsby town,43,A,15096234,26449,5.829,0.01,32.916909000000004,-86.72033499999999,2017
AL,0176200,2628606,Tibbie CDP,57,S,4532480,44357,1.75,0.017,31.370471000000002,-88.24386,2017
AL,0176208,2582704,Tidmore Bend CDP,57,S,24953938,311194,9.635,0.12,34.033184000000006,-85.926387,2017
AL,0176320,2402933,Tillmans Corner CDP,57,S,33597024,99955,12.972000000000001,0.039,30.581533,-88.21278000000001,2017
AL,0176584,2406744,Town Creek town,43,A,6943603,6664,2.681,0.003,34.671301,-87.407763,2017
AL,0176632,2406745,Toxey town,43,A,1772177,0,0.684,0.0,31.910712,-88.309146,2017
AL,0176680,2406747,Trafford town,43,A,6316486,0,2.439,0.0,33.81948,-86.746572,2017
AL,0176824,2406753,Triana town,43,A,3170550,51834,1.224,0.02,34.592663,-86.742875,2017
AL,0176872,2406755,Trinity town,43,A,11407382,17870,4.404,0.006999999999999999,34.597263,-87.08380600000001,2017
AL,0176920,2405606,Troy city,25,A,73081496,199932,28.217,0.077,31.801959999999998,-85.96713000000001,2017
AL,0176944,2405608,Trussville city,25,A,86301636,985691,33.321,0.381,33.655407000000004,-86.563109,2017
AL,0177256,2405614,Tuscaloosa city,25,A,159664938,26061863,61.647,10.062999999999999,33.234404,-87.5283,2017
AL,0177280,2405616,Tuscumbia city,25,A,23883112,112568,9.221,0.043,34.718502,-87.702586,2017
AL,0177304,2405617,Tuskegee city,25,A,41728378,675976,16.111,0.261,32.418209000000004,-85.673314,2017
AL,0177352,2424938,Twin town,43,A,8738147,0,3.3739999999999997,0.0,33.992314,-87.852295,2017
AL,0177580,2402943,Underwood-Petersville CDP,57,S,15170193,49007,5.857,0.019,34.876112,-87.698157,2017
AL,0177616,2406776,Union town,43,A,2126775,0,0.821,0.0,32.993809999999996,-87.907179,2017
AL,0177784,2406778,Union Grove town,43,A,1440637,26078,0.556,0.01,34.406172,-86.451667,2017
AL,0177880,2405629,Union Springs city,25,A,17165645,160695,6.627999999999999,0.062,32.139506,-85.714623,2017
AL,0177904,2406779,Uniontown town,43,A,39308954,43112,15.177,0.017,32.446719,-87.48738,2017
AL,0178120,2628607,Uriah CDP,57,S,4159909,0,1.6059999999999999,0.0,31.307365,-87.499213,2017
AL,0178204,2405634,Valley city,25,A,30352864,0,11.719000000000001,0.0,32.766754999999996,-85.198652,2017
AL,0178232,2405635,Valley Grande city,25,A,86776378,810503,33.505,0.313,32.486872,-87.03277299999999,2017
AL,0178240,2406785,Valley Head town,43,A,8980575,12925,3.467,0.005,34.556204,-85.623044,2017
AL,0178264,2406787,Vance town,43,A,26359231,77205,10.177,0.03,33.173992,-87.22662700000001,2017
AL,0178312,2582705,Vandiver CDP,57,S,53006782,1407234,20.465999999999998,0.5429999999999999,33.458856,-86.529222,2017
AL,0178480,2405641,Vernon city,25,A,15221022,0,5.877000000000001,0.0,33.758859,-88.114379,2017
AL,0178552,2405646,Vestavia Hills city,25,A,51197831,619871,19.768,0.239,33.462496,-86.739508,2017
AL,0178984,2406801,Vina town,43,A,12434964,10433,4.801,0.004,34.376175,-88.060572,2017
AL,0179008,2406802,Vincent town,43,A,53311740,978770,20.584,0.37799999999999995,33.383145,-86.40254399999999,2017
AL,0179032,2628608,Vinegar Bend CDP,57,S,24483318,52184,9.453,0.02,31.259093,-88.367264,2017
AL,0179272,2406808,Vredenburgh town,43,A,3893265,35373,1.5030000000000001,0.013999999999999999,31.823234000000003,-87.318077,2017
AL,0179344,2406813,Wadley town,43,A,3768951,175772,1.455,0.068,33.1234,-85.56859200000001,2017
AL,0179488,2406819,Waldo town,43,A,7279856,135325,2.8110000000000004,0.052000000000000005,33.387083000000004,-86.041075,2017
AL,0179728,2406827,Walnut Grove town,43,A,13020013,30960,5.027,0.012,34.064595000000004,-86.28716999999999,2017
AL,0179944,2405676,Warrior city,25,A,25263386,0,9.754,0.0,33.815234000000004,-86.815304,2017
AL,0180064,2406837,Waterloo town,43,A,1936032,140050,0.748,0.054000000000000006,34.917199,-88.064373,2017
AL,0180256,2406842,Waverly town,43,A,7054656,48649,2.7239999999999998,0.019,32.730078000000006,-85.570999,2017
AL,0180352,2405699,Weaver city,25,A,8975535,10629,3.465,0.004,33.761854,-85.810191,2017
AL,0180376,2406847,Webb town,43,A,28893388,0,11.155999999999999,0.0,31.257337,-85.28979,2017
AL,0180496,2406851,Wedowee town,43,A,9049067,76510,3.4939999999999998,0.03,33.308004,-85.4865,2017
AL,0180736,2582706,Weogufka CDP,57,S,21398999,157948,8.262,0.061,33.032234,-86.323775,2017
AL,0180928,2406861,West Blocton town,43,A,12427439,63435,4.798,0.024,33.118176,-87.125225,2017
AL,0181084,2403002,West End-Cobb Town CDP,57,S,10741317,6754,4.147,0.003,33.651481,-85.876553,2017
AL,0181336,2406862,West Jefferson town,43,A,4651603,94188,1.796,0.036000000000000004,33.666512,-87.047044,2017
AL,0181504,2406871,Westover town,43,A,48527361,367750,18.737000000000002,0.142,33.365561,-86.529205,2017
AL,0181528,2406865,West Point town,43,A,8833118,70330,3.41,0.027000000000000003,34.23873,-86.964075,2017
AL,0181720,2405723,Wetumpka city,25,A,27473588,1113285,10.607999999999999,0.43,32.540376,-86.206999,2017
AL,0181744,2628609,Whatley CDP,57,S,3343784,0,1.291,0.0,31.646342999999998,-87.710836,2017
AL,0181912,2406877,White Hall town,43,A,39631732,610271,15.302,0.23600000000000002,32.297411,-86.715776,2017
AL,0182104,2582707,White Plains CDP,57,S,33125714,232722,12.79,0.09,33.759312,-85.68847,2017
AL,0182176,2582708,Whitesboro CDP,57,S,45267096,55928,17.477999999999998,0.022000000000000002,34.169004,-86.058499,2017
AL,0182848,2406894,Wilsonville town,43,A,26793672,543476,10.345,0.21,33.240752,-86.491105,2017
AL,0182872,2406895,Wilton town,43,A,2479860,14569,0.9570000000000001,0.006,33.081565000000005,-86.879655,2017
AL,0182992,2405765,Winfield city,25,A,45435603,128470,17.543,0.05,33.931561,-87.79187399999999,2017
AL,0183400,2406911,Woodland town,43,A,4036422,0,1.558,0.0,33.375627,-85.397439,2017
AL,0183640,2406913,Woodstock town,43,A,18326017,394814,7.0760000000000005,0.152,33.217312,-87.14841,2017
AL,0183664,2406914,Woodville town,43,A,17151408,102463,6.622000000000001,0.04,34.629576,-86.283461,2017
AL,0183976,2406925,Yellow Bluff town,43,A,1197812,0,0.462,0.0,31.962139,-87.48071999999999,2017
AL,0184096,2405800,York city,25,A,17780658,46822,6.865,0.018000000000000002,32.500609000000004,-88.29140100000001,2017
AK,0200065,2419346,Adak city,25,A,85139091,99962402,32.872,38.596,51.839904,-176.565516,2017
AK,0200650,2419347,Akhiok city,25,A,19166808,5724762,7.4,2.21,56.948329,-154.215307,2017
AK,0200760,2418756,Akiachak CDP,57,S,18271838,0,7.055,0.0,60.920848,-161.401971,2017
AK,0200870,2419348,Akiak city,25,A,4889997,2880562,1.8880000000000001,1.112,60.909447,-161.216002,2017
AK,0201090,2419349,Akutan city,25,A,170812292,212259125,65.95100000000001,81.954,54.139993000000004,-165.763018,2017
AK,0201200,2419350,Alakanuk city,25,A,82925419,25332256,32.018,9.781,62.710997,-164.649719,2017
AK,0201305,2418761,Alatna CDP,57,S,94044730,0,36.311,0.0,66.56384399999999,-152.839177,2017
AK,0201390,2418762,Alcan Border CDP,57,S,393006327,2238744,151.741,0.8640000000000001,62.695606000000005,-141.182741,2017
AK,0201420,2419351,Aleknagik city,25,A,68757758,43954226,26.548000000000002,16.971,59.288961,-158.664343,2017
AK,0201560,2418764,Aleneva CDP,57,S,161118830,0,62.208,0.0,58.059052,-152.90901499999998,2017
AK,0201860,2419352,Allakaket city,25,A,38114978,6000613,14.716,2.3169999999999997,66.542002,-152.583016,2017
AK,0201970,2419353,Ambler city,25,A,26621408,4063404,10.279000000000002,1.569,67.090946,-157.887094,2017
AK,0202080,2419354,Anaktuvuk Pass city,25,A,13407404,139518,5.1770000000000005,0.054000000000000006,68.153805,-151.70496200000002,2017
AK,0203000,2419025,Anchorage municipality,37,A,4419537010,615526050,1706.3929999999998,237.65599999999998,61.17425,-149.284329,2017
AK,0203110,2418770,Anchor Point CDP,57,S,237678503,537771,91.76799999999999,0.20800000000000002,59.747364000000005,-151.695697,2017
AK,0203220,2419355,Anderson city,25,A,109299195,7216039,42.201,2.786,64.30828100000001,-149.16318700000002,2017
AK,0203440,2419356,Angoon city,25,A,66031953,34896840,25.495,13.474,57.441021,-134.478629,2017
AK,0203550,2419357,Aniak city,25,A,16020688,5929586,6.186,2.289,61.57761899999999,-159.541755,2017
AK,0203880,2419358,Anvik city,25,A,24580285,6308736,9.491,2.436,62.632521,-160.213555,2017
AK,0203990,2418777,Arctic Village CDP,57,S,164453466,16778600,63.496,6.478,68.16542,-145.401329,2017
AK,0204210,2419359,Atka city,25,A,21933243,72347704,8.468,27.934,52.211401,-174.213028,2017
AK,0204430,2418781,Atmautluak CDP,57,S,1565431,7175088,0.604,2.77,60.86275500000001,-162.280302,2017
AK,0204500,2419360,Atqasuk city,25,A,101319315,9365008,39.12,3.616,70.480786,-157.325459,2017
AK,0204670,2418783,Attu Station CDP,57,S,369171535,2796905,142.53799999999998,1.08,52.880247999999995,173.256076,2017
AK,0205000,2582709,Badger CDP,57,S,169956362,2797561,65.62100000000001,1.08,64.800081,-147.385129,2017
AK,0205200,2419361,Barrow city,25,A,48614770,7013815,18.77,2.708,71.25167900000001,-156.800524,2017
AK,0205585,2418785,Bear Creek CDP,57,S,99212582,3334606,38.306,1.287,60.208059999999996,-149.369779,2017
AK,0205750,2418787,Beaver CDP,57,S,53142275,1362788,20.518,0.526,66.382801,-147.321938,2017
AK,0206245,2418789,Beluga CDP,57,S,256724471,1837461,99.12200000000001,0.7090000000000001,61.19095600000001,-151.184969,2017
AK,0206520,2419362,Bethel city,25,A,115063006,14719074,44.426,5.683,60.792998,-161.793477,2017
AK,0206630,2419363,Bettles city,25,A,3935355,68589,1.5190000000000001,0.026000000000000002,66.912513,-151.531172,2017
AK,0206850,2418791,Big Delta CDP,57,S,120170300,19315911,46.398,7.457999999999999,64.156648,-145.74092199999998,2017
AK,0207070,2418792,Big Lake CDP,57,S,298722300,32096395,115.337,12.392000000000001,61.529768000000004,-149.98091599999998,2017
AK,0207620,2418795,Birch Creek CDP,57,S,20900150,545229,8.07,0.21100000000000002,66.268331,-145.87639099999998,2017
AK,0208740,2419364,Brevig Mission city,25,A,6299192,206572,2.432,0.08,65.343191,-166.50895500000001,2017
AK,0209600,2419365,Buckland city,25,A,2205782,385080,0.852,0.149,65.97649399999999,-161.138804,2017
AK,0209657,2418798,Buffalo Soapstone CDP,57,S,57090459,6070,22.043000000000003,0.002,61.685152,-149.120215,2017
AK,0209710,2418799,Butte CDP,57,S,87524513,2789638,33.793,1.077,61.533733,-148.987695,2017
AK,0210150,2418801,Cantwell CDP,57,S,308256776,906815,119.01899999999999,0.35,63.411395999999996,-148.749621,2017
AK,0211690,2418803,Central CDP,57,S,642113632,3792717,247.921,1.464,65.48009,-144.47809099999998,2017
AK,0211800,2418805,Chalkyitsik CDP,57,S,22022283,667826,8.503,0.258,66.646666,-143.78643200000002,2017
AK,0212350,2418806,Chase CDP,57,S,437290633,1617510,168.83900000000003,0.625,62.418236,-149.936172,2017
AK,0212680,2419366,Chefornak city,25,A,13584549,1927989,5.245,0.7440000000000001,60.152004000000005,-164.25301299999998,2017
AK,0212920,2582710,Chena Ridge CDP,57,S,94420928,1054764,36.455999999999996,0.40700000000000003,64.799021,-148.023779,2017
AK,0212970,2418809,Chenega CDP,57,S,75848949,716582,29.285,0.27699999999999997,60.091954,-147.994697,2017
AK,0213230,2419367,Chevak city,25,A,2931444,30146,1.1320000000000001,0.012,61.529504,-165.593984,2017
AK,0213340,2418817,Chickaloon CDP,57,S,173641763,2133178,67.043,0.8240000000000001,61.815261,-148.29198300000002,2017
AK,0213450,2418819,Chicken CDP,57,S,300106909,0,115.87200000000001,0.0,64.08765799999999,-141.82813000000002,2017
AK,0213550,2419368,Chignik city,25,A,28179246,12876599,10.88,4.9719999999999995,56.29572099999999,-158.402943,2017
AK,0213670,2418822,Chignik Lagoon CDP,57,S,34319190,0,13.251,0.0,56.304267,-158.500259,2017
AK,0213780,2418824,Chignik Lake CDP,57,S,31738902,27333732,12.254000000000001,10.554,56.27196899999999,-158.789108,2017
AK,0213860,2418827,Chiniak CDP,57,S,100298050,180318,38.725,0.07,57.575196,-152.282836,2017
AK,0213890,2418828,Chisana CDP,57,S,205614369,129649,79.388,0.05,62.110039,-142.050549,2017
AK,0214000,2418830,Chistochina CDP,57,S,954239781,935194,368.434,0.361,62.59644399999999,-144.941045,2017
AK,0214110,2418832,Chitina CDP,57,S,218277938,39389729,84.27799999999999,15.208,61.551966,-144.175218,2017
AK,0214330,2419369,Chuathbaluk city,25,A,11574356,4543935,4.468999999999999,1.754,61.575539,-159.24707,2017
AK,0214880,2418837,Circle CDP,57,S,274634007,1398608,106.037,0.54,65.83855,-144.175142,2017
AK,0215320,2418838,Clam Gulch CDP,57,S,34546293,21936,13.338,0.008,60.208902,-151.404202,2017
AK,0215430,2419370,Clark's Point city,25,A,8603022,2039990,3.322,0.7879999999999999,58.833040000000004,-158.527311,2017
AK,0216360,2419371,Coffman Cove city,25,A,28146584,6267175,10.867,2.42,56.001751,-132.841933,2017
AK,0216420,2418842,Cohoe CDP,57,S,181062560,8965634,69.90899999999999,3.4619999999999997,60.266971,-151.298172,2017
AK,0216530,2419372,Cold Bay city,25,A,138343006,37921808,53.415,14.642000000000001,55.215824,-162.775686,2017
AK,0216630,2418843,Coldfoot CDP,57,S,92825199,0,35.84,0.0,67.247451,-150.108051,2017
AK,0216750,2418844,College CDP,57,S,48478681,1065431,18.718,0.41100000000000003,64.870065,-147.807221,2017
AK,0217190,2418845,Cooper Landing CDP,57,S,170322405,10583165,65.762,4.086,60.495070999999996,-149.844285,2017
AK,0217300,2418847,Copper Center CDP,57,S,32391008,0,12.505999999999998,0.0,61.984549,-145.354343,2017
AK,0217410,2419373,Cordova city,25,A,157265165,37355828,60.72,14.423,60.530138,-145.642065,2017
AK,0217670,2418850,Covenant Life CDP,57,S,70064747,452144,27.052,0.175,59.397505,-136.123002,2017
AK,0217740,2419374,Craig city,25,A,17339345,7281916,6.695,2.812,55.488746,-133.111568,2017
AK,0217850,2418853,Crooked Creek CDP,57,S,258516984,19617639,99.814,7.574,61.796853000000006,-158.081066,2017
AK,0217960,2418549,Crown Point CDP,57,S,9257836,0,3.574,0.0,60.42667900000001,-149.35298,2017
AK,0218510,2419375,Deering city,25,A,12984514,237599,5.013,0.092,66.069486,-162.76459499999999,2017
AK,0218620,2419376,Delta Junction city,25,A,36052334,48786,13.92,0.019,64.05476,-145.685721,2017
AK,0218675,2418552,Deltana CDP,57,S,1475046508,5276620,569.519,2.037,63.789386,-145.351621,2017
AK,0218805,2418701,Denali Park CDP,57,S,456603733,624910,176.296,0.24100000000000002,63.572867,-148.67344,2017
AK,0218925,2418553,Diamond Ridge CDP,57,S,109853888,0,42.415,0.0,59.70235400000001,-151.554571,2017
AK,0218950,2419377,Dillingham city,25,A,86353110,7057409,33.341,2.725,59.060472,-158.532223,2017
AK,0219060,2419378,Diomede city,25,A,6297827,0,2.432,0.0,65.753924,-168.922577,2017
AK,0219720,2418556,Dot Lake CDP,57,S,763949895,2135222,294.96299999999997,0.8240000000000001,63.586914,-144.293082,2017
AK,0219750,2418557,Dot Lake Village CDP,57,S,11052998,0,4.268,0.0,63.662262,-144.01601399999998,2017
AK,0220020,2418559,Dry Creek CDP,57,S,363074347,174493,140.184,0.067,63.626638,-144.639194,2017
AK,0220380,2419379,Eagle city,25,A,2300196,0,0.888,0.0,64.78126400000001,-141.197725,2017
AK,0220600,2418561,Eagle Village CDP,57,S,44030948,0,17.0,0.0,64.74338900000001,-141.113834,2017
AK,0220970,2770983,Edna Bay city,25,A,54766247,7940619,21.145,3.0660000000000003,55.967618,-133.692252,2017
AK,0221040,2419380,Eek city,25,A,1677558,242697,0.648,0.094,60.216265,-162.041999,2017
AK,0221150,2419381,Egegik city,25,A,76164296,256600198,29.406999999999996,99.074,58.205148,-157.521978,2017
AK,0221370,2418568,Eielson AFB CDP,57,S,76750273,3708848,29.633000000000003,1.432,64.6733,-147.059464,2017
AK,0221810,2419382,Ekwok city,25,A,43368283,3268372,16.745,1.262,59.345664,-157.488006,2017
AK,0222140,2418572,Elfin Cove CDP,57,S,26430976,466626,10.205,0.18,58.191175,-136.312524,2017
AK,0222250,2419383,Elim city,25,A,6887132,0,2.659,0.0,64.618226,-162.27656000000002,2017
AK,0222910,2419384,Emmonak city,25,A,12825834,2479940,4.952,0.958,62.77559,-164.50929,2017
AK,0223460,2418574,Ester CDP,57,S,166421269,129955,64.256,0.05,64.879056,-148.041153,2017
AK,0223720,2582711,Eureka Roadhouse CDP,57,S,481165737,4032111,185.77900000000002,1.557,61.958507,-147.155104,2017
AK,0223790,2418576,Evansville CDP,57,S,59628894,504859,23.023000000000003,0.195,66.932973,-151.368929,2017
AK,0223900,2418577,Excursion Inlet CDP,57,S,145898372,359343,56.332,0.139,58.415135,-135.345519,2017
AK,0224230,2419385,Fairbanks city,25,A,82327030,2167044,31.787,0.8370000000000001,64.83653100000001,-147.651745,2017
AK,0224660,2419386,False Pass city,25,A,64900230,104864499,25.058000000000003,40.488,54.872441,-163.33426799999998,2017
AK,0224980,2582712,Farmers Loop CDP,57,S,56657861,59094,21.875999999999998,0.023,64.908224,-147.69866100000002,2017
AK,0225000,2418580,Farm Loop CDP,57,S,18059766,56963,6.973,0.022000000000000002,61.638456000000005,-149.134043,2017
AK,0225220,2418581,Ferry CDP,57,S,164732176,0,63.603,0.0,64.04961999999999,-148.920602,2017
AK,0225550,2418582,Fishhook CDP,57,S,186478315,2262536,72.0,0.8740000000000001,61.731230000000004,-149.283619,2017
AK,0225880,2418583,Flat CDP,57,S,415044887,0,160.25,0.0,62.44136700000001,-158.040533,2017
AK,0226100,2418584,Fort Greely CDP,57,S,413933715,455424,159.821,0.17600000000000002,63.899598,-145.595251,2017
AK,0226760,2419387,Fort Yukon city,25,A,17466521,508298,6.744,0.196,66.58841,-145.22763600000002,2017
AK,0226835,2418586,Four Mile Road CDP,57,S,2973999,22058,1.148,0.009000000000000001,64.604233,-149.115264,2017
AK,0226870,2418588,Fox CDP,57,S,33649385,0,12.992,0.0,64.974859,-147.609006,2017
AK,0226910,2418589,Fox River CDP,57,S,324760949,7471113,125.391,2.885,59.894505,-151.007044,2017
AK,0227090,2418590,Fritz Creek CDP,57,S,139745640,0,53.956,0.0,59.746866000000004,-151.288607,2017
AK,0227145,2418591,Funny River CDP,57,S,69212855,5763654,26.723000000000003,2.225,60.484437,-150.789659,2017
AK,0227420,2418593,Gakona CDP,57,S,157278288,0,60.725,0.0,62.36078199999999,-145.265669,2017
AK,0227530,2419388,Galena city,25,A,45721023,17751813,17.653,6.854,64.741405,-156.87341999999998,2017
AK,0227640,2419389,Gambell city,25,A,26889055,46718662,10.382,18.038,63.766594999999995,-171.73297,2017
AK,0227700,2418596,Game Creek CDP,57,S,15261170,158600,5.892,0.061,58.050105,-135.51254699999998,2017
AK,0228200,2418597,Gateway CDP,57,S,55771516,1558871,21.534000000000002,0.602,61.566573,-149.223038,2017
AK,0228590,2418599,Glacier View CDP,57,S,601172964,5726527,232.114,2.211,61.847988,-147.772593,2017
AK,0228740,2418600,Glennallen CDP,57,S,298040855,1373565,115.074,0.53,62.147315,-145.83616999999998,2017
AK,0229130,2582713,Goldstream CDP,57,S,222739445,95236,86.0,0.037000000000000005,64.951999,-147.970602,2017
AK,0229180,2419390,Golovin city,25,A,10709114,0,4.135,0.0,64.563902,-162.998943,2017
AK,0229290,2419391,Goodnews Bay city,25,A,8633990,0,3.3339999999999996,0.0,59.127165000000005,-161.575325,2017
AK,0230060,2419392,Grayling city,25,A,29110431,31129,11.24,0.012,62.896044999999994,-160.11302,2017
AK,0230500,2418605,Gulkana CDP,57,S,89990843,0,34.746,0.0,62.215182999999996,-145.444886,2017
AK,0230940,2419393,Gustavus city,25,A,94165631,53368158,36.358000000000004,20.605999999999998,58.434466,-135.728242,2017
AK,0231050,2418606,Haines CDP,57,S,34274250,19252958,13.232999999999999,7.434,59.260431999999994,-135.472166,2017
AK,0231270,2418607,Halibut Cove CDP,57,S,21547854,8211916,8.32,3.1710000000000003,59.56958100000001,-151.223764,2017
AK,0231710,2418610,Happy Valley CDP,57,S,228439345,7802,88.20100000000001,0.003,59.91044399999999,-151.608179,2017
AK,0231765,2418611,Harding-Birch Lakes CDP,57,S,554651844,44023456,214.15200000000002,16.998,64.381305,-146.530601,2017
AK,0232150,2418612,Healy CDP,57,S,1779228859,525614,686.9639999999999,0.203,63.95963199999999,-148.970842,2017
AK,0232310,2418614,Healy Lake CDP,57,S,172906521,21452186,66.76,8.283,64.010439,-144.678662,2017
AK,0232550,2418615,Hobart Bay CDP,57,S,309310729,24792456,119.426,9.572000000000001,57.417759,-133.306571,2017
AK,0232810,2418616,Hollis CDP,57,S,168374924,2603019,65.01,1.005,55.515474,-132.701922,2017
AK,0233030,2419394,Holy Cross city,25,A,74718510,18682937,28.849,7.2139999999999995,62.187073999999996,-159.851971,2017
AK,0233140,2419395,Homer city,25,A,35709711,29699084,13.788,11.467,59.647445,-151.513119,2017
AK,0233360,2419396,Hoonah city,25,A,15376851,3057568,5.937,1.181,58.122237,-135.43188700000002,2017
AK,0233470,2419397,Hooper Bay city,25,A,19418101,78618,7.497000000000001,0.03,61.509161999999996,-166.111348,2017
AK,0233580,2418620,Hope CDP,57,S,133956537,180627,51.721000000000004,0.07,60.886124,-149.632991,2017
AK,0233800,2419398,Houston city,25,A,61922357,3489326,23.908,1.347,61.615302,-149.800248,2017
AK,0233910,2419399,Hughes city,25,A,7871729,0,3.0389999999999997,0.0,66.04521700000001,-154.237627,2017
AK,0234350,2419400,Huslia city,25,A,40835717,1497588,15.767000000000001,0.578,65.70568,-156.30633899999998,2017
AK,0234460,2419401,Hydaburg city,25,A,741929,20743,0.28600000000000003,0.008,55.205842000000004,-132.820438,2017
AK,0234570,2418624,Hyder CDP,57,S,44213083,0,17.070999999999998,0.0,55.981542000000005,-130.038288,2017
AK,0234790,2418626,Igiugig CDP,57,S,53296331,4000518,20.578000000000003,1.545,59.30125400000001,-155.86095,2017
AK,0235120,2418628,Iliamna CDP,57,S,96392440,1213528,37.217,0.469,59.81280600000001,-154.842262,2017
AK,0235890,2418633,Ivanof Bay CDP,57,S,10860667,0,4.1930000000000005,0.0,55.918199,-159.493298,2017
AK,0236400,2419344,Juneau city and borough,53,A,6829216436,1423792753,2636.775,549.729,58.643522999999995,-134.28116699999998,2017
AK,0236540,2419402,Kachemak city,25,A,4288278,0,1.656,0.0,59.674439,-151.43647099999998,2017
AK,0236770,2419403,Kake city,25,A,19872183,15107532,7.672999999999999,5.832999999999999,56.975319999999996,-133.903663,2017
AK,0236990,2419404,Kaktovik city,25,A,2005414,704200,0.774,0.272,70.121452,-143.629435,2017
AK,0237250,2418637,Kalifornsky CDP,57,S,178265864,2362069,68.829,0.912,60.453398,-151.220304,2017
AK,0237430,2419405,Kaltag city,25,A,55981686,15385773,21.615,5.94,64.313823,-158.779727,2017
AK,0237540,2418642,Karluk CDP,57,S,144891647,4969786,55.943000000000005,1.919,57.590874,-154.36391,2017
AK,0237650,2419406,Kasaan city,25,A,15703415,1904849,6.063,0.735,55.561144999999996,-132.406834,2017
AK,0237975,2418645,Kasigluk CDP,57,S,30641785,2692768,11.831,1.04,60.86409499999999,-162.538579,2017
AK,0238090,2418646,Kasilof CDP,57,S,27001239,520939,10.425,0.201,60.319336,-151.232875,2017
AK,0238420,2419407,Kenai city,25,A,75473871,17674885,29.141,6.824,60.562274,-151.207971,2017
AK,0238910,2418649,Kenny Lake CDP,57,S,503817134,197247,194.525,0.076,61.627171,-144.862976,2017
AK,0238970,2419408,Ketchikan city,25,A,9731922,2964476,3.758,1.145,55.357136,-131.674564,2017
AK,0239300,2419409,Kiana city,25,A,489312,0,0.18899999999999997,0.0,66.972598,-160.434327,2017
AK,0239410,2419410,King Cove city,25,A,63738537,11883622,24.61,4.588,55.0774,-162.320403,2017
AK,0239630,2418653,King Salmon CDP,57,S,435647013,3758636,168.204,1.4509999999999998,58.73523,-156.528532,2017
AK,0239740,2418657,Kipnuk CDP,57,S,51776428,821794,19.991,0.317,59.936452,-164.061751,2017
AK,0239960,2419411,Kivalina city,25,A,4235705,6541612,1.635,2.526,67.72705400000001,-164.53559099999998,2017
AK,0240400,2419412,Klawock city,25,A,1884220,634265,0.728,0.245,55.556413,-133.086292,2017
AK,0240510,2418660,Klukwan CDP,57,S,3598502,1300463,1.389,0.502,59.39976600000001,-135.886877,2017
AK,0240645,2418663,Knik-Fairview CDP,57,S,215524174,2995185,83.214,1.156,61.49716,-149.654505,2017
AK,0240670,2418662,Knik River CDP,57,S,211522152,25918644,81.669,10.007,61.461826,-149.007532,2017
AK,0240840,2419413,Kobuk city,25,A,40163361,1327064,15.507,0.512,66.923418,-156.904076,2017
AK,0240950,2419414,Kodiak city,25,A,10161074,4069848,3.923,1.571,57.791189,-152.42008700000002,2017
AK,0241210,2418665,Kodiak Station CDP,57,S,60038385,20073548,23.180999999999997,7.75,57.76795,-152.595907,2017
AK,0241280,2418667,Kokhanok CDP,57,S,53939242,304137,20.826,0.11699999999999999,59.412874,-154.74666100000002,2017
AK,0241500,2418668,Koliganek CDP,57,S,43314277,42247,16.724,0.016,59.696684,-157.224824,2017
AK,0241610,2418670,Kongiganak CDP,57,S,4868016,279431,1.88,0.10800000000000001,59.96445799999999,-162.883103,2017
AK,0241720,2419415,Kotlik city,25,A,7501204,1563650,2.8960000000000004,0.604,63.029205000000005,-163.536259,2017
AK,0241830,2419416,Kotzebue city,25,A,63952515,4690487,24.691999999999997,1.811,66.876434,-162.51158999999998,2017
AK,0241940,2419417,Koyuk city,25,A,13213438,0,5.102,0.0,64.941084,-161.14545800000002,2017
AK,0242050,2419418,Koyukuk city,25,A,14859750,290257,5.737,0.11199999999999999,64.90125400000001,-157.69409299999998,2017
AK,0242160,2419419,Kupreanof city,25,A,7822904,4214812,3.02,1.6269999999999998,56.82129499999999,-132.972152,2017
AK,0242380,2419420,Kwethluk city,25,A,26311951,4303718,10.158999999999999,1.662,60.793457,-161.431124,2017
AK,0242490,2418677,Kwigillingok CDP,57,S,61487848,226610,23.741,0.087,59.874233999999994,-163.20554099999998,2017
AK,0242805,2418679,Lake Louise CDP,57,S,124410907,66336355,48.035,25.613000000000003,62.296944999999994,-146.531845,2017
AK,0242820,2418680,Lake Minchumina CDP,57,S,588478833,59477613,227.213,22.964000000000002,63.79014300000001,-152.462128,2017
AK,0242832,2418681,Lakes CDP,57,S,32550258,3671759,12.568,1.4180000000000001,61.60521800000001,-149.311468,2017
AK,0243040,2419421,Larsen Bay city,25,A,10867097,5468406,4.196000000000001,2.1109999999999998,57.55089399999999,-154.005277,2017
AK,0243260,2418683,Lazy Mountain CDP,57,S,151859804,421146,58.633,0.163,61.657536,-148.928502,2017
AK,0243810,2418685,Levelock CDP,57,S,43319638,0,16.726,0.0,59.068245999999995,-156.901021,2017
AK,0244030,2418687,Lime Village CDP,57,S,198111581,5673660,76.491,2.191,61.330481000000006,-155.238328,2017
AK,0244580,2418688,Livengood CDP,57,S,686761475,1247846,265.16,0.48200000000000004,65.476506,-148.422784,2017
AK,0245020,2585565,Loring CDP,57,S,1434002,200593,0.5539999999999999,0.077,55.606676,-131.639976,2017
AK,0245295,2418689,Lowell Point CDP,57,S,30372836,55677,11.727,0.021,60.076063,-149.493807,2017
AK,0245460,2419422,Lower Kalskag city,25,A,3222591,1310463,1.244,0.506,61.516286,-160.355598,2017
AK,0245700,2418692,Lutak CDP,57,S,328819031,16325832,126.958,6.303,59.412212,-135.589046,2017
AK,0245790,2418699,McCarthy CDP,57,S,387139723,0,149.475,0.0,61.453956999999996,-142.864693,2017
AK,0246010,2419425,McGrath city,25,A,106682217,17486438,41.19,6.752000000000001,62.938063,-155.548521,2017
AK,0246780,2418695,Manley Hot Springs CDP,57,S,141435198,0,54.608000000000004,0.0,65.018757,-150.645281,2017
AK,0246890,2419423,Manokotak city,25,A,90937336,2300685,35.111,0.888,59.005035,-159.000091,2017
AK,0247000,2419424,Marshall city,25,A,10517015,8501,4.061,0.003,61.879256000000005,-162.061264,2017
AK,0247735,2418702,Meadow Lakes CDP,57,S,195322856,8332228,75.415,3.217,61.624118,-149.56229,2017
AK,0247990,2419426,Mekoryuk city,25,A,18137346,165165,7.002999999999999,0.064,60.370715000000004,-166.266637,2017
AK,0248200,2418706,Mendeltna CDP,57,S,1170286842,17262757,451.85,6.665,62.145988,-146.758453,2017
AK,0248540,2418708,Mentasta Lake CDP,57,S,777827486,4503172,300.32099999999997,1.739,63.015164,-143.539736,2017
AK,0248590,2582714,Mertarvik CDP,57,S,18116641,0,6.995,0.0,60.810993,-164.49911,2017
AK,0248870,2418709,Metlakatla CDP,57,S,5971505,49611,2.306,0.019,55.114699,-131.555726,2017
AK,0249530,2418714,Minto CDP,57,S,343453561,9229111,132.608,3.563,65.089635,-149.59021,2017
AK,0250080,2418716,Moose Creek CDP,57,S,3885071,386576,1.5,0.149,64.716369,-147.166627,2017
AK,0250190,2418717,Moose Pass CDP,57,S,45876324,433815,17.713,0.16699999999999998,60.505936,-149.46836100000002,2017
AK,0250800,2418718,Mosquito Lake CDP,57,S,199864628,543101,77.168,0.21,59.4751,-136.199101,2017
AK,0251180,2419427,Mountain Village city,25,A,10907836,3115223,4.212,1.203,62.09200500000001,-163.695033,2017
AK,0251455,2418720,Mud Bay CDP,57,S,31359224,62881,12.107999999999999,0.024,59.151182999999996,-135.356493,2017
AK,0251960,2582715,Nabesna CDP,57,S,415063391,1450936,160.257,0.56,62.49639499999999,-143.008002,2017
AK,0252060,2418722,Naknek CDP,57,S,211204488,1710869,81.547,0.6609999999999999,58.787585,-156.892504,2017
AK,0252210,2418726,Nanwalek CDP,57,S,21716631,35731,8.385,0.013999999999999999,59.326523,-151.923902,2017
AK,0252390,2419428,Napakiak city,25,A,5993220,700793,2.314,0.271,60.688433999999994,-161.980467,2017
AK,0252720,2419429,Napaskiak city,25,A,7515798,702135,2.9019999999999997,0.271,60.704078,-161.752634,2017
AK,0252845,2418730,Naukati Bay CDP,57,S,12407817,776749,4.791,0.3,55.876985,-133.18698999999998,2017
AK,0252915,2418731,Nelchina CDP,57,S,122948528,1100955,47.471000000000004,0.425,62.009852,-146.83003200000002,2017
AK,0252940,2418733,Nelson Lagoon CDP,57,S,487216084,152450774,188.115,58.861999999999995,55.836649,-161.635799,2017
AK,0253050,2419430,Nenana city,25,A,15418485,763703,5.952999999999999,0.295,64.53605400000001,-149.083629,2017
AK,0253270,2419432,Newhalen city,25,A,15687875,6323233,6.057,2.441,59.736429,-154.900955,2017
AK,0253710,2419431,New Stuyahok city,25,A,87336910,5787373,33.721,2.235,59.485255,-157.309354,2017
AK,0253820,2418740,Newtok CDP,57,S,3437419,304638,1.327,0.11800000000000001,60.935052,-164.645901,2017
AK,0253930,2419433,Nightmute city,25,A,256325145,14050739,98.96799999999999,5.425,60.462401,-164.83463999999998,2017
AK,0254050,2418742,Nikiski CDP,57,S,179808774,16845314,69.425,6.504,60.725014,-151.225256,2017
AK,0254085,2418743,Nikolaevsk CDP,57,S,90248100,0,34.845,0.0,59.829553000000004,-151.596382,2017
AK,0254150,2419434,Nikolai city,25,A,11367582,806499,4.388999999999999,0.311,62.999115,-154.374944,2017
AK,0254260,2418746,Nikolski CDP,57,S,342013584,1896277,132.05200000000002,0.732,53.007863,-168.718502,2017
AK,0254480,2418748,Ninilchik CDP,57,S,536763053,73420,207.245,0.027999999999999997,60.06170899999999,-151.406462,2017
AK,0254700,2419144,Noatak CDP,57,S,41524645,2125695,16.033,0.821,67.58948199999999,-163.010434,2017
AK,0254920,2419435,Nome city,25,A,33115512,22534526,12.786,8.701,64.505736,-165.415307,2017
AK,0255030,2419436,Nondalton city,25,A,17511512,717823,6.761,0.27699999999999997,59.973907,-154.865714,2017
AK,0255140,2419437,Noorvik city,25,A,2171088,1107191,0.838,0.42700000000000005,66.82821,-161.034669,2017
AK,0255910,2419438,North Pole city,25,A,10580213,36859,4.085,0.013999999999999999,64.752728,-147.36265500000002,2017
AK,0256220,2419148,Northway CDP,57,S,48492059,4259715,18.723,1.645,62.959833999999994,-141.837395,2017
AK,0256250,2419149,Northway Junction CDP,57,S,21024040,251880,8.117,0.09699999999999999,63.024127,-141.79126499999998,2017
AK,0256260,2419150,Northway Village CDP,57,S,6086845,14650,2.35,0.006,62.982257999999995,-141.928056,2017
AK,0256320,2419439,Nuiqsut city,25,A,23020450,0,8.888,0.0,70.213483,-150.989674,2017
AK,0256350,2419440,Nulato city,25,A,105061456,8341791,40.564,3.221,64.691078,-158.275756,2017
AK,0256600,2419441,Nunam Iqua city,25,A,29964345,16911018,11.569,6.529,62.506898,-164.900548,2017
AK,0256680,2419442,Nunapitchuk city,25,A,18094826,2511967,6.986000000000001,0.97,60.882114,-162.464322,2017
AK,0257340,2419443,Old Harbor city,25,A,41927384,16569445,16.188,6.397,57.21858100000001,-153.327933,2017
AK,0258330,2419158,Oscarville CDP,57,S,6642069,495256,2.565,0.191,60.723428000000006,-161.787508,2017
AK,0258550,2419444,Ouzinkie city,25,A,14320952,3894499,5.529,1.504,57.92459399999999,-152.463767,2017
AK,0258660,2419445,Palmer city,25,A,13127217,0,5.0680000000000005,0.0,61.597175,-149.11469,2017
AK,0259320,2419162,Paxson CDP,57,S,789927592,36714261,304.993,14.175,62.975724,-145.758901,2017
AK,0259540,2419164,Pedro Bay CDP,57,S,44171617,5834641,17.055,2.253,59.782161,-154.107931,2017
AK,0259650,2419446,Pelican city,25,A,1410415,180851,0.545,0.07,57.959229,-136.21506599999998,2017
AK,0260200,2419167,Perryville CDP,57,S,28892567,51369,11.155,0.02,55.930603000000005,-159.14678600000002,2017
AK,0260310,2761697,Petersburg CDP,57,S,114295601,5628629,44.13,2.173,56.754282999999994,-132.873808,2017
AK,0260460,2419168,Petersville CDP,57,S,1197373857,1721192,462.309,0.665,62.452913,-150.883063,2017
AK,0260640,2419448,Pilot Point city,25,A,63416277,337504591,24.485,130.311,57.541137,-157.72280700000002,2017
AK,0260750,2419449,Pilot Station city,25,A,4201510,669644,1.6219999999999999,0.259,61.946443,-162.878306,2017
AK,0260860,2419172,Pitkas Point CDP,57,S,4162872,0,1.607,0.0,62.0374,-163.26813700000002,2017
AK,0261080,2419450,Platinum city,25,A,121938243,594634,47.081,0.23,58.951345999999994,-161.747454,2017
AK,0261120,2419174,Pleasant Valley CDP,57,S,80550620,0,31.101,0.0,64.885434,-146.89860900000002,2017
AK,0261190,2419175,Point Baker CDP,57,S,2276986,0,0.879,0.0,56.34813199999999,-133.616794,2017
AK,0261630,2419451,Point Hope city,25,A,12800115,844752,4.942,0.326,68.34415200000001,-166.67485200000002,2017
AK,0261700,2419178,Point Lay CDP,57,S,73847369,9782126,28.513,3.7769999999999997,69.748187,-163.013025,2017
AK,0261788,2419179,Point MacKenzie CDP,57,S,395024280,6304383,152.52,2.434,61.355596999999996,-150.16935,2017
AK,0261825,2582716,Point Possession CDP,57,S,108714535,0,41.975,0.0,60.923081,-150.688844,2017
AK,0262125,2419181,Pope-Vannoy Landing CDP,57,S,144087402,21546122,55.632,8.318999999999999,59.570602,-154.447236,2017
AK,0262285,2419190,Portage Creek CDP,57,S,33338340,0,12.872,0.0,58.904908,-157.669052,2017
AK,0262510,2419452,Port Alexander city,25,A,8956986,29930517,3.458,11.556,56.237513,-134.652805,2017
AK,0262620,2419182,Port Alsworth CDP,57,S,58649607,161468,22.645,0.062,60.157849,-154.340609,2017
AK,0263170,2419183,Port Clarence CDP,57,S,88199997,2514792,34.054,0.971,65.109117,-166.764457,2017
AK,0263280,2419185,Port Graham CDP,57,S,16544027,0,6.388,0.0,59.33979,-151.846501,2017
AK,0263390,2419453,Port Heiden city,25,A,121604299,1084273,46.952,0.419,56.964339,-158.585285,2017
AK,0263610,2419454,Port Lions city,25,A,12914563,9687323,4.986000000000001,3.74,57.86699399999999,-152.856304,2017
AK,0263870,2419188,Port Protection CDP,57,S,9645413,475410,3.7239999999999998,0.184,56.331881,-133.60641999999999,2017
AK,0264240,2419191,Primrose CDP,57,S,89274969,2681304,34.469,1.035,60.341623999999996,-149.296448,2017
AK,0264380,2419192,Prudhoe Bay CDP,57,S,980467478,462367150,378.561,178.521,70.36621,-148.745529,2017
AK,0264600,2419455,Quinhagak city,25,A,10522302,1615188,4.063,0.624,59.750838,-161.89871499999998,2017
AK,0264820,2419196,Rampart CDP,57,S,439842675,197561,169.824,0.076,65.404951,-149.920918,2017
AK,0264930,2419198,Red Devil CDP,57,S,65077917,6991305,25.127,2.699,61.757560999999995,-157.358451,2017
AK,0264980,2419199,Red Dog Mine CDP,57,S,178326547,0,68.852,0.0,68.06441099999999,-162.866869,2017
AK,0265345,2419200,Ridgeway CDP,57,S,43447744,2349844,16.775,0.907,60.535943,-151.05788700000002,2017
AK,0265590,2419456,Ruby city,25,A,18194547,0,7.025,0.0,64.72329,-155.50054,2017
AK,0265700,2419457,Russian Mission city,25,A,13905652,912722,5.369,0.35200000000000004,61.778662,-161.363406,2017
AK,0265800,2419458,St. George city,25,A,90002615,382165049,34.75,147.555,56.592794,-169.624378,2017
AK,0266140,2419459,St. Mary's city,25,A,115525447,18033322,44.605,6.962999999999999,62.064761,-163.25571599999998,2017
AK,0266360,2419460,St. Michael city,25,A,56325550,16363505,21.747,6.318,63.463986,-162.133164,2017
AK,0266470,2419461,St. Paul city,25,A,104411891,660837409,40.314,255.15099999999998,57.179041000000005,-170.325068,2017
AK,0266510,2419204,Salamatof CDP,57,S,20798100,439434,8.03,0.17,60.605183,-151.311782,2017
AK,0266550,2419205,Salcha CDP,57,S,193892077,5127066,74.862,1.98,64.534001,-146.884226,2017
AK,0267020,2419462,Sand Point city,25,A,20444187,58012472,7.894,22.399,55.313373999999996,-160.48321299999998,2017
AK,0267460,2419463,Savoonga city,25,A,15208051,0,5.872000000000001,0.0,63.679706,-170.483324,2017
AK,0267570,2419464,Saxman city,25,A,2472364,13084,0.955,0.005,55.323556,-131.586333,2017
AK,0267680,2419465,Scammon Bay city,25,A,1212562,0,0.46799999999999997,0.0,61.841929,-165.583279,2017
AK,0268230,2419466,Selawik city,25,A,6036879,1587600,2.331,0.613,66.591838,-160.00221299999998,2017
AK,0268340,2419467,Seldovia city,25,A,940140,477466,0.363,0.184,59.438699,-151.711985,2017
AK,0268370,2419213,Seldovia Village CDP,57,S,46991835,2870404,18.144000000000002,1.1079999999999999,59.46126999999999,-151.588755,2017
AK,0268560,2419468,Seward city,25,A,36122561,20573392,13.947000000000001,7.943,60.124786,-149.391581,2017
AK,0268670,2419469,Shageluk city,25,A,26552932,3230944,10.252,1.247,62.661788,-159.552189,2017
AK,0268890,2418854,Shaktoolik city,25,A,2680413,32472,1.035,0.013000000000000001,64.359686,-161.200724,2017
AK,0269770,2418855,Shishmaref city,25,A,5756627,13059632,2.2230000000000003,5.042,66.23871700000001,-166.10929199999998,2017
AK,0270100,2418856,Shungnak city,25,A,20853333,2410509,8.052,0.9309999999999999,66.880505,-157.149979,2017
AK,0270320,2419219,Silver Springs CDP,57,S,6635838,0,2.562,0.0,62.019311,-145.35831100000001,2017
AK,0270540,2419345,Sitka city and borough,53,A,7433222810,5037940435,2869.9829999999997,1945.16,57.193204,-135.36739599999999,2017
AK,0270760,2419220,Skagway CDP,57,S,24478109,123838,9.451,0.048,59.46436,-135.275151,2017
AK,0270870,2419221,Skwentna CDP,57,S,1137452903,17315306,439.173,6.685,61.888689,-151.199994,2017
AK,0270930,2419222,Slana CDP,57,S,654761973,2238573,252.805,0.8640000000000001,62.6169,-143.519733,2017
AK,0271090,2419224,Sleetmute CDP,57,S,247590961,23634265,95.595,9.125,61.653861,-157.10302,2017
AK,0271640,2418857,Soldotna city,25,A,18014091,1176538,6.955,0.45399999999999996,60.48531800000001,-151.06901399999998,2017
AK,0272190,2419227,South Naknek CDP,57,S,226499848,6301244,87.45200000000001,2.4330000000000003,58.675534,-156.994126,2017
AK,0272230,2582717,South Van Horn CDP,57,S,20949874,1175351,8.089,0.45399999999999996,64.80973399999999,-147.787752,2017
AK,0272960,2418858,Stebbins city,25,A,88006911,3944516,33.98,1.5230000000000001,63.473399,-162.263528,2017
AK,0272985,2582718,Steele Creek CDP,57,S,240376657,14963,92.81,0.006,64.926612,-147.43509,2017
AK,0273070,2419233,Sterling CDP,57,S,201393750,4863812,77.759,1.8780000000000001,60.540532999999996,-150.805849,2017
AK,0273290,2419235,Stevens Village CDP,57,S,30141336,4265921,11.638,1.6469999999999998,66.023707,-149.080314,2017
AK,0273400,2419237,Stony River CDP,57,S,8125438,3677053,3.137,1.42,61.789694,-156.588682,2017
AK,0273950,2419238,Sunrise CDP,57,S,33728264,0,13.023,0.0,60.870068,-149.467798,2017
AK,0274340,2419239,Susitna CDP,57,S,461660753,29388634,178.248,11.347000000000001,61.54928,-150.72647800000001,2017
AK,0274350,2419291,Susitna North CDP,57,S,714273797,3686405,275.783,1.423,62.147532999999996,-149.74866699999998,2017
AK,0274525,2419240,Sutton-Alpine CDP,57,S,149189782,979122,57.602,0.37799999999999995,61.741893000000005,-148.874204,2017
AK,0274610,2419242,Takotna CDP,57,S,61682577,0,23.816,0.0,62.982342,-156.084059,2017
AK,0274830,2419243,Talkeetna CDP,57,S,69384786,7752891,26.79,2.9930000000000003,62.271377,-150.084564,2017
AK,0275050,2419245,Tanacross CDP,57,S,205568832,4251345,79.37100000000001,1.641,63.32806,-143.487087,2017
AK,0275077,2419246,Tanaina CDP,57,S,78645956,1255262,30.365,0.485,61.657242000000004,-149.427747,2017
AK,0275160,2418859,Tanana city,25,A,27634833,11209197,10.67,4.328,65.18446999999999,-152.05471,2017
AK,0275380,2419249,Tatitlek CDP,57,S,18808310,7254876,7.2620000000000005,2.801,60.893876,-146.66992199999999,2017
AK,0275480,2419251,Tazlina CDP,57,S,21291533,2206765,8.221,0.852,62.058349,-145.464375,2017
AK,0275930,2418860,Teller city,25,A,3865436,487521,1.492,0.188,65.252515,-166.35239199999998,2017
AK,0276260,2418861,Tenakee Springs city,25,A,34055473,12321570,13.149000000000001,4.757,57.790054000000005,-135.135446,2017
AK,0276590,2419254,Tetlin CDP,57,S,175678531,3364501,67.83,1.2990000000000002,63.180949,-142.510382,2017
AK,0277140,2418862,Thorne Bay city,25,A,69081719,7883794,26.673000000000002,3.0439999999999996,55.667027000000004,-132.535653,2017
AK,0277690,2418863,Togiak city,25,A,108803053,473039190,42.00899999999999,182.641,59.044031000000004,-160.42588899999998,2017
AK,0277800,2419258,Tok CDP,57,S,345287377,0,133.316,0.0,63.328852000000005,-143.037543,2017
AK,0278240,2418864,Toksook Bay city,25,A,74353262,108316876,28.708000000000002,41.821000000000005,60.528071,-165.10618799999997,2017
AK,0278297,2419260,Tolsona CDP,57,S,117291575,3076197,45.287,1.188,62.068635,-146.12311599999998,2017
AK,0278350,2419261,Tonsina CDP,57,S,411823838,573625,159.006,0.221,61.530898,-145.110836,2017
AK,0278680,2419262,Trapper Creek CDP,57,S,828471044,20626905,319.874,7.9639999999999995,62.41774,-150.40513700000002,2017
AK,0278790,2419264,Tuluksak CDP,57,S,7569564,254341,2.923,0.098,61.104273,-160.937572,2017
AK,0279120,2419266,Tuntutuliak CDP,57,S,300247584,628070,115.926,0.242,60.385009,-162.684337,2017
AK,0279230,2419268,Tununak CDP,57,S,157229031,620905,60.706,0.24,60.607087,-165.12826299999998,2017
AK,0279780,2419270,Twin Hills CDP,57,S,59320360,346659,22.904,0.134,59.081858,-160.280645,2017
AK,0279830,2419271,Two Rivers CDP,57,S,71675777,0,27.674,0.0,64.890845,-147.089884,2017
AK,0279890,2419273,Tyonek CDP,57,S,175760373,2874893,67.861,1.11,61.1031,-151.38593899999998,2017
AK,0280100,2419275,Ugashik CDP,57,S,641805292,48620697,247.80200000000002,18.773,57.647434,-156.994908,2017
AK,0280660,2418865,Unalakleet city,25,A,7378671,5430355,2.8489999999999998,2.097,63.89435400000001,-160.796908,2017
AK,0280770,2418866,Unalaska city,25,A,267130541,279071918,103.14,107.75,53.910799,-166.527446,2017
AK,0281320,2418867,Upper Kalskag city,25,A,9207858,1151770,3.555,0.445,61.539515,-160.34832600000001,2017
AK,0282200,2418868,Valdez city,25,A,550862250,153375584,212.68900000000002,59.218999999999994,61.083620999999994,-146.317179,2017
AK,0282420,2419279,Venetie CDP,57,S,60410224,0,23.325,0.0,67.020607,-146.375154,2017
AK,0282750,2418869,Wainwright city,25,A,26712261,45897774,10.314,17.721,70.658242,-159.985194,2017
AK,0282860,2418870,Wales city,25,A,5966050,121,2.3040000000000003,0.0,65.613232,-168.068313,2017
AK,0283080,2418871,Wasilla city,25,A,32102936,1898468,12.395,0.733,61.57524,-149.45684,2017
AK,0284000,2419283,Whale Pass CDP,57,S,91383221,3577990,35.283,1.381,56.126699,-133.197685,2017
AK,0284070,2418872,White Mountain city,25,A,4726118,574260,1.825,0.222,64.682355,-163.412755,2017
AK,0284120,2582719,Whitestone CDP,57,S,18298887,0,7.065,0.0,64.152838,-145.906385,2017
AK,0284200,2419285,Whitestone Logging Camp CDP,57,S,28385724,0,10.96,0.0,58.065380000000005,-135.420477,2017
AK,0284510,2418873,Whittier city,25,A,31733987,19130360,12.253,7.386,60.776683,-148.664642,2017
AK,0285280,2419286,Willow CDP,57,S,1787403388,21898021,690.12,8.455,61.887021999999995,-149.619706,2017
AK,0285290,2419287,Willow Creek CDP,57,S,95977169,2200335,37.056999999999995,0.85,61.86464399999999,-145.199413,2017
AK,0285610,2419288,Wiseman CDP,57,S,202072470,50969,78.021,0.02,67.481427,-150.160724,2017
AK,0285680,2419289,Womens Bay CDP,57,S,113733254,315583,43.913000000000004,0.122,57.688669,-152.677066,2017
AK,0286380,2418874,Wrangell city and borough,53,A,6619614514,2384746838,2555.848,920.7560000000001,56.317416,-132.343978,2017
AK,0286490,2419293,Yakutat CDP,57,S,260258399,9407358,100.486,3.6319999999999997,59.563588,-139.606191,2017
AZ,0400730,2582720,Aguila CDP,57,S,4067735,0,1.571,0.0,33.937515999999995,-113.16648300000001,2017
AZ,0400870,2407704,Ajo CDP,57,S,86316542,0,33.327,0.0,32.392278999999995,-112.883874,2017
AZ,0400940,2582721,Ak Chin CDP,57,S,1362614,0,0.526,0.0,32.287326,-112.009078,2017
AZ,0401090,2407705,Ak-Chin Village CDP,57,S,27441249,0,10.595,0.0,33.019653999999996,-112.080758,2017
AZ,0401170,2582722,Alamo Lake CDP,57,S,113800269,6794365,43.93899999999999,2.623,34.255851,-113.50031299999999,2017
AZ,0401560,2582723,Ali Chuk CDP,57,S,3733795,0,1.442,0.0,31.816919,-112.55839399999999,2017
AZ,0401570,2582724,Ali Chukson CDP,57,S,5357759,0,2.069,0.0,31.911528000000004,-111.801625,2017
AZ,0401620,2582725,Ali Molina CDP,57,S,1996741,0,0.7709999999999999,0.0,31.902547,-111.780387,2017
AZ,0401920,2582726,Alpine CDP,57,S,1556310,777,0.601,0.0,33.845523,-109.14369599999999,2017
AZ,0401990,2407737,Amado CDP,57,S,13617077,44432,5.257999999999999,0.017,31.697358,-111.060803,2017
AZ,0402270,2582727,Anegam CDP,57,S,5988615,0,2.312,0.0,32.374193,-112.03496299999999,2017
AZ,0402410,2582728,Antares CDP,57,S,1675166,0,0.647,0.0,35.422990999999996,-113.80828799999999,2017
AZ,0402430,2582729,Anthem CDP,57,S,20488087,9115,7.91,0.004,33.846765999999995,-112.126999,2017
AZ,0402830,2409718,Apache Junction city,25,A,90849189,30856,35.077,0.012,33.398314,-111.53534599999999,2017
AZ,0403320,2582730,Arivaca CDP,57,S,71942198,0,27.776999999999997,0.0,31.574938,-111.29261100000001,2017
AZ,0403380,2582731,Arivaca Junction CDP,57,S,7570907,0,2.923,0.0,31.738972999999998,-111.07377,2017
AZ,0403530,2407758,Arizona City CDP,57,S,15901048,186302,6.138999999999999,0.07200000000000001,32.750787,-111.670454,2017
AZ,0403915,2407759,Arizona Village CDP,57,S,4118643,0,1.59,0.0,34.854836,-114.589339,2017
AZ,0404020,2582732,Arlington CDP,57,S,5935474,0,2.292,0.0,33.334621999999996,-112.77475,2017
AZ,0404440,2407771,Ash Fork CDP,57,S,5976455,0,2.3080000000000003,0.0,35.217188,-112.491303,2017
AZ,0404710,2582733,Avenue B and C CDP,57,S,1903261,17557,0.735,0.006999999999999999,32.719042,-114.660049,2017
AZ,0404720,2409765,Avondale city,25,A,117194454,186352,45.248999999999995,0.07200000000000001,33.42038,-112.290801,2017
AZ,0404880,2407789,Avra Valley CDP,57,S,57465370,0,22.188000000000002,0.0,32.419517,-111.339266,2017
AZ,0404930,2582734,Aztec CDP,57,S,15942353,0,6.155,0.0,32.808134,-113.44271,2017
AZ,0405140,2407792,Bagdad CDP,57,S,20678844,0,7.984,0.0,34.577109,-113.177008,2017
AZ,0405450,2582735,Bear Flat CDP,57,S,546169,0,0.21100000000000002,0.0,34.292398999999996,-111.067383,2017
AZ,0405490,2582736,Beaver Dam CDP,57,S,21799318,0,8.417,0.0,36.907098,-113.93631299999998,2017
AZ,0405495,2582737,Beaver Valley CDP,57,S,3893643,3269,1.5030000000000001,0.001,34.342896,-111.299929,2017
AZ,0405770,2409835,Benson city,25,A,107839306,128980,41.637,0.05,31.914496999999997,-110.328552,2017
AZ,0405970,2582738,Beyerville CDP,57,S,862667,0,0.33299999999999996,0.0,31.392024,-110.87491899999999,2017
AZ,0406260,2409851,Bisbee city,25,A,13369237,2384,5.162000000000001,0.001,31.398035999999998,-109.93183400000001,2017
AZ,0406470,2407852,Bitter Springs CDP,57,S,20783365,0,8.025,0.0,36.61177,-111.64749499999999,2017
AZ,0406610,2407854,Black Canyon City CDP,57,S,62864352,0,24.272,0.0,34.070945,-112.122024,2017
AZ,0406820,2407860,Blackwater CDP,57,S,46259124,0,17.861,0.0,33.039590000000004,-111.579851,2017
AZ,0407025,2407868,Bluewater CDP,57,S,5379889,797652,2.077,0.308,34.170415000000006,-114.26288600000001,2017
AZ,0407310,2407894,Bouse CDP,57,S,352816091,0,136.22299999999998,0.0,33.898438,-113.996245,2017
AZ,0407380,2582739,Bowie CDP,57,S,4393141,0,1.696,0.0,32.324831,-109.484454,2017
AZ,0407590,2582740,Brenda CDP,57,S,17897998,0,6.91,0.0,33.672082,-113.93788300000001,2017
AZ,0407915,2582741,Bryce CDP,57,S,2179382,0,0.841,0.0,32.925827000000005,-109.82307800000001,2017
AZ,0407940,2411736,Buckeye city,25,A,1016617584,343920,392.51800000000003,0.133,33.432902,-112.64818000000001,2017
AZ,0408020,2582742,Buckshot CDP,57,S,783984,46601,0.303,0.018000000000000002,32.740349,-114.48306399999998,2017
