state,geoid,name,lowest_grade_provided,highest_grade_provided,land_area_meters_sq,water_area_meters_sq,land_area_miles_sq,water_area_miles_sq,latitude,longitude,year
AL,0100195,Pike Road City School District,KG,12,85146878,778561,32.875,0.301,32.283188,-85.96568,2018
AZ,0400004,Clarkdale-Jerome Elementary District,PK,8,211351942,380983,81.60300000000001,0.147,34.748857,-112.11202800000001,2018
AZ,0400005,Salome Consolidated Elementary District,PK,8,1551915213,37430,599.198,0.013999999999999999,33.598773,-113.82446399999999,2018
AZ,0400022,Vernon Elementary District,KG,12,565402511,517748,218.303,0.2,34.215664000000004,-109.691538,2018
AZ,0400480,Aguila Elementary District,KG,12,724565972,0,279.756,0.0,33.816484,-113.23601399999998,2018
AZ,0400600,Alhambra Elementary District,PK,8,32858329,53403,12.687000000000001,0.021,33.508562,-112.136459,2018
AZ,0400630,Alpine Elementary District,KG,12,452275116,1413906,174.62400000000002,0.546,33.804241999999995,-109.24529299999999,2018
AZ,0400750,Apache Elementary District,KG,12,656526485,1250405,253.486,0.483,31.668567,-109.161432,2018
AZ,0400840,Arlington Elementary District,PK,8,1833717912,53344,708.002,0.021,33.335485999999996,-113.047754,2018
AZ,0400870,Ash Creek Elementary District,PK,8,530664911,232916,204.891,0.09,31.879056,-109.53971299999999,2018
AZ,0400960,Avondale Elementary District,PK,8,74321469,34133,28.695999999999998,0.013000000000000001,33.431745,-112.38656200000001,2018
AZ,0401050,Balsz Elementary District,PK,8,22638076,117711,8.741,0.045,33.461859999999994,-111.973578,2018
AZ,0401080,Beaver Creek Elementary District,KG,12,472224540,36349,182.327,0.013999999999999999,34.694722999999996,-111.673152,2018
AZ,0401230,Blue Elementary District,PK,12,1076522943,715952,415.648,0.276,33.510721999999994,-109.129127,2018
AZ,0401260,Bonita Elementary District,KG,12,1605422650,319501,619.857,0.12300000000000001,32.56834,-110.137147,2018
AZ,0401290,Bouse Elementary District,PK,8,1776099254,581303,685.7560000000001,0.22399999999999998,33.943023,-114.022029,2018
AZ,0401380,Buckeye Elementary District,PK,8,486508197,0,187.842,0.0,33.266534,-112.596065,2018
AZ,0401500,Bullhead City School District,PK,8,1162706220,51275350,448.923,19.798,35.362569,-114.54291699999999,2018
AZ,0401650,Canon Elementary District,KG,12,442869528,0,170.993,0.0,34.205508,-112.214545,2018
AZ,0401680,Cartwright Elementary District,PK,8,36423333,56987,14.062999999999999,0.022000000000000002,33.485719,-112.197374,2018
AZ,0401710,Casa Grande Elementary District,PK,8,926110251,338526,357.57300000000004,0.131,32.836488,-111.790951,2018
AZ,0401920,Chevelon Butte School District,KG,12,1617206676,2034365,624.4069999999999,0.785,34.520070000000004,-110.94983799999999,2018
AZ,0402130,Cochise Elementary District,KG,12,240750368,39908820,92.954,15.409,32.107811,-110.004782,2018
AZ,0402190,Concho Elementary District,PK,12,951128580,1339459,367.233,0.517,34.444949,-109.70953100000001,2018
AZ,0402220,Congress Elementary District,KG,12,2424568607,134194,936.1310000000001,0.052000000000000005,34.19585,-113.04181499999999,2018
AZ,0402250,Continental Elementary District,PK,12,378300922,60281,146.063,0.023,31.8113,-110.93108500000001,2018
AZ,0402370,Cottonwood-Oak Creek Elementary District,PK,8,1108949180,20784,428.168,0.008,34.845766999999995,-112.04055600000001,2018
AZ,0402400,Crane Elementary District,PK,8,117184817,1140819,45.245,0.44,32.6727,-114.68935900000001,2018
AZ,0402430,Creighton Elementary District,PK,8,30500715,89505,11.776,0.035,33.493157000000004,-112.01406399999999,2018
AZ,0402460,Crown King Elementary District,KG,12,213599387,15578,82.471,0.006,34.192694,-112.31954499999999,2018
AZ,0402490,Double Adobe Elementary District,KG,12,101220214,27065,39.080999999999996,0.01,31.487678999999996,-109.66981499999999,2018
AZ,0402710,Eagle Elementary District,KG,12,1476106728,593842,569.928,0.22899999999999998,33.48343,-109.282928,2018
AZ,0402760,Elfrida Elementary District,PK,8,419297236,188440,161.892,0.073,31.744840000000003,-109.645312,2018
AZ,0402790,Eloy Elementary District,PK,8,770298209,238568,297.414,0.092,32.613322,-111.596383,2018
AZ,0402820,Empire Elementary District,KG,12,577592543,0,223.01,0.0,31.820859000000002,-110.592605,2018
AZ,0403060,Fowler Elementary District,PK,8,32577765,0,12.578,0.0,33.43376,-112.21521100000001,2018
AZ,0403240,Gadsden Elementary District,PK,8,78284613,357117,30.226,0.138,32.532483,-114.773978,2018
AZ,0403420,Glendale Elementary District,PK,8,41073099,7542,15.857999999999999,0.003,33.540223,-112.196955,2018
AZ,0403660,Hackberry School District,PK,12,2162189394,3150253,834.826,1.216,35.54422,-113.75482099999999,2018
AZ,0403900,Hyder Elementary District,PK,8,1189324772,0,459.20099999999996,0.0,32.943507000000004,-113.49788899999999,2018
AZ,0403960,Isaac Elementary District,PK,8,15737026,7172,6.0760000000000005,0.003,33.466703,-112.143726,2018
AZ,0404170,Kirkland Elementary District,KG,12,436796977,0,168.648,0.0,34.403966,-112.64275500000001,2018
AZ,0404200,Klondyke Elementary District,KG,12,936918352,17587,361.746,0.006999999999999999,32.803473,-110.26109299999999,2018
AZ,0404230,Kyrene Elementary District,PK,8,335599011,1141903,129.576,0.441,33.283026,-112.01466299999998,2018
AZ,0404290,Laveen Elementary District,PK,8,72467943,308078,27.98,0.11900000000000001,33.364335,-112.16005,2018
AZ,0404320,Liberty Elementary District,PK,8,678132885,0,261.829,0.0,33.272408,-112.427361,2018
AZ,0404380,Litchfield Elementary District,PK,8,170324171,701413,65.763,0.271,33.500882,-112.41381799999999,2018
AZ,0404440,Littleton Elementary District,PK,8,75679733,0,29.22,0.0,33.408618,-112.316204,2018
AZ,0404500,Madison Elementary District,PK,8,38458222,221576,14.849,0.086,33.525813,-112.045817,2018
AZ,0404530,Maine Consolidated School District,KG,12,610236702,233423,235.614,0.09,35.285249,-111.96718200000001,2018
AZ,0404770,Altar Valley Elementary District,PK,12,1341288300,20482,517.874,0.008,31.958854,-111.36566699999999,2018
AZ,0404860,McNary Elementary District,KG,12,465084397,4064244,179.57,1.569,34.055012,-109.708375,2018
AZ,0404920,McNeal Elementary District,KG,12,291557273,223294,112.571,0.086,31.559425,-109.59633899999999,2018
AZ,0405100,Mobile Elementary District,KG,12,648933318,0,250.555,0.0,33.048255,-112.341844,2018
AZ,0405190,Mohave Valley Elementary District,PK,8,1069438862,5029888,412.913,1.942,34.951105,-114.426603,2018
AZ,0405220,Mohawk Valley Elementary District,PK,8,4659999531,3400,1799.236,0.001,32.961515000000006,-113.74199399999999,2018
AZ,0405340,Morristown Elementary District,PK,12,401968446,79668,155.201,0.031,33.874953999999995,-112.58355800000001,2018
AZ,0405400,Murphy Elementary District,PK,8,17830298,100686,6.8839999999999995,0.039,33.431436,-112.12373400000001,2018
AZ,0405430,Naco Elementary District,KG,12,41271835,13749,15.935,0.005,31.363265000000002,-109.97343400000001,2018
AZ,0405640,Oracle Elementary District,PK,12,775747952,695,299.518,0.0,32.626008,-110.84486100000001,2018
AZ,0405670,Osborn Elementary District,PK,8,17988373,95475,6.945,0.037000000000000005,33.496072,-112.078949,2018
AZ,0405730,Owens-Whitney Elementary District,KG,12,5125435460,18821861,1978.942,7.267,34.665603999999995,-113.652899,2018
AZ,0405760,Tonto Basin Elementary District,KG,12,934388618,30459954,360.769,11.761,33.857052,-111.245822,2018
AZ,0405850,Palo Verde Elementary District,PK,8,168658510,160902,65.119,0.062,33.400436,-112.684401,2018
AZ,0405880,Palominas Elementary District,PK,12,498354679,154392,192.416,0.06,31.431255,-110.131831,2018
AZ,0406000,Patagonia Elementary District,PK,8,1112371598,1364218,429.48900000000003,0.527,31.518804,-110.75716399999999,2018
AZ,0406150,Pearce Elementary District,PK,8,520388922,272703,200.923,0.105,31.901290000000003,-109.85165500000001,2018
AZ,0406210,Pendergast Elementary District,PK,8,50230252,331697,19.394000000000002,0.128,33.498627,-112.276458,2018
AZ,0406300,Phoenix Elementary District,PK,8,40173027,12397,15.511,0.005,33.453077,-112.078344,2018
AZ,0406360,Picacho Elementary District,PK,8,653148993,3185423,252.18200000000002,1.23,32.715727,-111.358841,2018
AZ,0406510,Pine Strawberry Elementary District,PK,12,733554619,686531,283.22700000000003,0.265,34.303856,-111.56113300000001,2018
AZ,0406630,Pomerene Elementary District,KG,12,98103120,49602,37.878,0.019,31.989771,-110.206379,2018
AZ,0406780,Quartzsite Elementary District,PK,8,3555637599,14549323,1372.839,5.617999999999999,33.421912,-114.38376000000001,2018
AZ,0406900,Red Rock Elementary District,PK,8,433913952,19541,167.535,0.008,32.550169,-111.23605400000001,2018
AZ,0406930,Redington Elementary District,PK,12,363248775,0,140.251,0.0,32.419282,-110.534272,2018
AZ,0407020,Riverside Elementary District,PK,8,23711738,687753,9.155,0.266,33.425953,-112.173627,2018
AZ,0407080,Roosevelt Elementary District,PK,8,85000432,217912,32.819,0.084,33.38688,-112.06838700000002,2018
AZ,0407140,Rucker Elementary District,KG,12,433073245,101162,167.21099999999998,0.039,31.693002000000003,-109.434743,2018
AZ,0407200,Sacaton Elementary District,PK,8,728091516,184214,281.118,0.071,33.125752,-111.931526,2018
AZ,0407380,San Fernando Elementary District,KG,12,726239626,290678,280.403,0.11199999999999999,31.633291999999997,-111.491421,2018
AZ,0407500,Santa Cruz Elementary District,KG,12,205916545,271567,79.505,0.105,31.399409999999996,-110.805467,2018
AZ,0407680,Sentinel Elementary District,KG,12,1211776551,210596,467.87,0.081,33.015496,-113.21224699999999,2018
AZ,0407770,Skull Valley Elementary District,KG,12,677425948,0,261.556,0.0,34.597226,-112.761228,2018
AZ,0407860,Solomon Elementary District,PK,12,3400270367,9479117,1312.852,3.66,32.867481,-109.45965,2018
AZ,0407890,Somerton Elementary District,PK,8,227789949,203620,87.95,0.079,32.539577,-114.705675,2018
AZ,0407920,Sonoita Elementary District,PK,8,683619989,282654,263.947,0.109,31.619765,-110.60037700000001,2018
AZ,0408130,Stanfield Elementary District,PK,8,1469272903,323858,567.289,0.125,32.721537,-112.049397,2018
AZ,0408310,Tempe School District,PK,8,93009016,1369565,35.911,0.529,33.406288,-111.937854,2018
AZ,0408430,Paloma School District,KG,12,234516055,0,90.54700000000001,0.0,32.933988,-112.90146000000001,2018
AZ,0408460,Hillside Elementary District,KG,12,291297880,0,112.471,0.0,34.464412,-112.88746499999999,2018
AZ,0408490,Tolleson Elementary District,PK,8,16023240,0,6.187,0.0,33.455961,-112.258652,2018
AZ,0408550,Toltec Elementary District,PK,8,241689299,338634,93.31700000000001,0.131,32.756935999999996,-111.685115,2018
AZ,0408640,Topock Elementary District,PK,8,479029187,18332933,184.954,7.077999999999999,34.69689,-114.344246,2018
AZ,0408820,Union Elementary District,PK,8,90412265,304541,34.908,0.11800000000000001,33.350576000000004,-112.25808799999999,2018
AZ,0408880,Valentine Elementary District,KG,12,339177674,162998,130.957,0.063,35.381809000000004,-113.61859,2018
AZ,0409030,Walnut Grove Elementary District,KG,12,998423160,0,385.49300000000005,0.0,34.156255,-112.43483799999998,2018
AZ,0409060,Washington Elementary District,PK,8,112707077,405424,43.516000000000005,0.157,33.5887,-112.113091,2018
AZ,0409090,Wellton Elementary District,PK,8,2088583658,0,806.4069999999999,0.0,33.020799,-114.15930900000001,2018
AZ,0409120,Wenden Elementary District,PK,8,2958650289,7805020,1142.3410000000001,3.014,33.843725,-113.503024,2018
AZ,0409360,Williamson Valley Elementary School District,PK,12,1571125898,285207,606.615,0.11,34.846305,-112.868397,2018
AZ,0409390,Wilson Elementary District,PK,8,15612614,2384,6.028,0.001,33.429662,-112.014156,2018
AZ,0409510,Yarnell Elementary District,PK,12,214257141,0,82.725,0.0,34.276896,-112.724225,2018
AZ,0409540,Young Elementary School District,PK,12,2221337032,413081,857.663,0.159,33.976652,-110.96034399999999,2018
AZ,0409570,Yucca Elementary District,KG,12,1818102631,25631,701.9730000000001,0.01,34.732325,-113.974883,2018
AZ,0409600,Yuma Elementary District,PK,8,5919960490,11621123,2285.71,4.487,32.529507,-114.00489099999999,2018
CA,0600006,Ross Valley Elementary School District,KG,8,32811473,0,12.669,0.0,37.993718,-122.592775,2018
CA,0600012,Twin Ridges Elementary School District,KG,8,742887130,15743994,286.83,6.079,39.405196999999994,-120.760479,2018
CA,0601420,Fortuna Elementary School District,PK,8,75337197,1218835,29.088,0.47100000000000003,40.587086,-124.143106,2018
CA,0601427,Penn Valley Union Elementary School District,KG,8,214653896,2577519,82.87799999999999,0.995,39.197472999999995,-121.213406,2018
CA,0601680,Ackerman Elementary School District,KG,8,11308883,7628,4.3660000000000005,0.003,38.936632,-121.05078200000001,2018
CA,0601710,Adelanto Elementary School District,KG,6,868472230,832476,335.319,0.321,34.630638,-117.520563,2018
CA,0601890,Alexander Valley Union School District,KG,6,171901135,174852,66.37100000000001,0.068,38.670478,-122.81048500000001,2018
CA,0601950,Alisal Union Elementary School District,KG,6,167844311,284129,64.805,0.11,36.674726,-121.523781,2018
CA,0601980,Allensworth Elementary School District,KG,8,52502495,0,20.271,0.0,35.830304,-119.389039,2018
CA,0602100,Alpine Union Elementary School District,KG,8,246392327,2304776,95.133,0.89,32.825967999999996,-116.70196299999999,2018
CA,0602160,Alta Loma Elementary School District,KG,8,72069704,0,27.826,0.0,34.17068,-117.59521200000002,2018
CA,0602220,Alta Vista Elementary School District,KG,8,15434589,4457,5.959,0.002,36.066565000000004,-118.94105,2018
CA,0602250,Alta-Dutch Flat Union Elementary School District,KG,8,273768467,2014405,105.70299999999999,0.778,39.224661,-120.71821100000001,2018
CA,0602310,Alum Rock Union Elementary School District,KG,8,127486010,471968,49.223,0.182,37.363935999999995,-121.71674099999998,2018
CA,0602360,Alview-Dairyland Union Elementary School District,KG,8,299675181,1778270,115.705,0.687,37.028698,-120.38751699999999,2018
CA,0602370,Alvina Elementary School District,KG,8,18104057,0,6.99,0.0,36.553514,-119.787745,2018
CA,0602610,Anaheim Elementary School District,KG,6,54466500,418607,21.03,0.162,33.826558,-117.916776,2018
CA,0602760,Antelope Elementary School District,KG,8,1652373280,5099616,637.985,1.969,40.330985,-121.698885,2018
CA,0603000,Arcata Elementary School District,KG,8,47301892,13664537,18.262999999999998,5.276,40.872587,-124.077619,2018
CA,0603060,Arcohe Union Elementary School District,KG,8,306090990,2023325,118.182,0.7809999999999999,38.342268,-121.174195,2018
CA,0603090,Arena Union Elementary School District,KG,8,390646403,184481816,150.829,71.229,38.855501000000004,-123.571424,2018
CA,0603180,Armona Union Elementary School District,KG,8,129961060,155979,50.178000000000004,0.06,36.235521000000006,-119.70494199999999,2018
CA,0603270,Arvin Union School District,KG,8,808669531,504126,312.22900000000004,0.195,34.999572,-118.76823799999998,2018
CA,0603420,Atwater Elementary School District,KG,8,120630807,11735,46.576,0.005,37.362185,-120.61111499999998,2018
CA,0603480,Auburn Union Elementary School District,KG,8,153926913,2151417,59.431999999999995,0.831,38.938897,-121.12234099999999,2018
CA,0603630,Bakersfield City School District,KG,8,385671938,1860661,148.909,0.718,35.42194,-118.88388,2018
CA,0603720,Ballard Elementary School District,KG,8,16829207,27484,6.497999999999999,0.011000000000000001,34.62983,-120.123281,2018
CA,0603750,Ballico-Cressey Elementary School District,KG,8,149801306,300626,57.839,0.11599999999999999,37.470288000000004,-120.67108300000001,2018
CA,0603780,Bangor Union Elementary School District,KG,8,103433815,30997,39.936,0.012,39.398896,-121.408121,2018
CA,0603870,Banta Elementary School District,KG,8,95185868,3638157,36.751,1.405,37.759514,-121.34681100000002,2018
CA,0604080,Bass Lake Joint Union Elementary School District,KG,8,721505953,4985034,278.575,1.925,37.416909999999994,-119.599098,2018
CA,0604200,Bayshore Elementary School District,KG,8,4190758,23046403,1.618,8.898,37.691229,-122.39143600000001,2018
CA,0604260,Beardsley Elementary School District,KG,8,84891608,315910,32.777,0.122,35.475719,-119.06933300000001,2018
CA,0604350,Bella Vista Elementary School District,KG,8,222385537,11275862,85.86399999999999,4.354,40.698342,-122.166848,2018
CA,0604380,Bellevue Union School District,KG,6,57656686,26110,22.261,0.01,38.393177,-122.70090800000001,2018
CA,0604500,Belleview Elementary School District,KG,8,39691839,22466,15.325,0.009000000000000001,38.055861,-120.296158,2018
CA,0604530,Belmont-Redwood Shores Elementary School District,KG,8,27910276,25591777,10.776,9.881,37.53757,-122.23741100000001,2018
CA,0604560,Belridge Elementary School District,KG,8,341361349,588609,131.8,0.22699999999999998,35.491864,-119.740496,2018
CA,0604650,Bennett Valley Union Elementary School District,KG,6,44080143,44762,17.019000000000002,0.017,38.387102,-122.634919,2018
CA,0604800,Berryessa Union Elementary School District,KG,8,35799225,0,13.822000000000001,0.0,37.399401,-121.847897,2018
CA,0604860,Big Creek Elementary School District,KG,8,2018668549,47002669,779.4119999999999,18.148,37.321438,-119.021948,2018
CA,0604890,Big Lagoon Union Elementary School District,KG,8,228214385,9731187,88.11399999999999,3.7569999999999997,41.157501,-124.04031100000002,2018
CA,0604980,Big Springs Union Elementary School District,KG,8,224357961,3213635,86.625,1.2409999999999999,41.581443,-122.380705,2018
CA,0605190,Bitterwater-Tully Union Elementary School District,KG,8,713446541,2630983,275.46299999999997,1.016,36.383456,-120.863651,2018
CA,0605220,Black Butte Union Elementary School District,KG,8,488834992,1487452,188.74,0.574,40.512417,-121.784181,2018
CA,0605250,Blake Elementary School District,KG,8,300395664,12151,115.98299999999999,0.005,35.706990999999995,-118.86242800000001,2018
CA,0605280,Blochman Union Elementary School District,KG,8,669713402,3096951,258.578,1.196,34.912985,-120.16889499999999,2018
CA,0605400,Blue Lake Union Elementary School District,KG,8,287293669,662610,110.925,0.256,40.866019,-123.86871699999999,2018
CA,0605490,Bogus Elementary School District,KG,8,221183360,3778854,85.399,1.459,41.923753999999995,-122.312017,2018
CA,0605520,Bolinas-Stinson Union Elementary School District,KG,8,97397276,233158201,37.605,90.023,37.978660999999995,-122.79289399999999,2018
CA,0605580,Santa Maria-Bonita Elementary School District,KG,8,124930280,2422398,48.236000000000004,0.935,34.943964,-120.447849,2018
CA,0605640,Bonny Doon Union Elementary School District,KG,6,74975311,0,28.948,0.0,37.066496,-122.15082,2018
CA,0605730,Bradley Union Elementary School District,KG,8,537585671,16169819,207.563,6.242999999999999,35.894979,-120.788771,2018
CA,0605790,Brawley Elementary School District,KG,8,233408125,1292281,90.119,0.499,32.994498,-115.55470600000001,2018
CA,0605910,Brentwood Union Elementary School District,KG,8,146256206,121573,56.47,0.047,37.910508,-121.74833899999999,2018
CA,0606000,Bridgeville Elementary School District,KG,8,787099537,669488,303.901,0.258,40.517386,-123.706101,2018
CA,0606030,Briggs Elementary School District,KG,8,56340401,1199319,21.753,0.46299999999999997,34.358740999999995,-119.13314299999999,2018
CA,0606060,Brisbane Elementary School District,KG,8,12439659,20935062,4.803,8.083,37.67575,-122.383302,2018
CA,0606090,Brittan Elementary School District,KG,8,162241702,314696,62.641999999999996,0.122,39.172726000000004,-121.805819,2018
CA,0606100,Browns Elementary School District,KG,8,84192950,0,32.507,0.0,38.956091,-121.481205,2018
CA,0606270,Buckeye Union Elementary School District,KG,8,147051416,141436,56.777,0.055,38.646997,-120.96781499999999,2018
CA,0606330,Buellton Union Elementary School District,KG,8,175506235,97129,67.763,0.038,34.588751,-120.19878600000001,2018
CA,0606360,Buena Park Elementary School District,KG,8,18482687,124648,7.136,0.048,33.870090000000005,-118.001822,2018
CA,0606390,Panama-Buena Vista School District,KG,8,238895275,1129391,92.238,0.436,35.335886,-119.125628,2018
CA,0606420,Buena Vista Elementary School District,KG,8,55569894,54753,21.456,0.021,36.170947999999996,-119.434532,2018
CA,0606480,Burlingame Elementary School District,KG,8,13411063,4275105,5.178,1.651,37.586604,-122.36608899999999,2018
CA,0606510,Burnt Ranch Elementary School District,KG,8,544147054,3143,210.09599999999998,0.001,40.889439,-123.43256000000001,2018
CA,0606540,Burrel Union Elementary School District,KG,8,186954747,0,72.184,0.0,36.458521000000005,-120.026028,2018
CA,0606570,Burton Elementary School District,KG,8,16968816,241998,6.5520000000000005,0.09300000000000001,36.0816,-119.074955,2018
CA,0606690,Butteville Union Elementary School District,KG,8,316567283,5801985,122.227,2.24,41.451307,-122.40644499999999,2018
CA,0606720,Buttonwillow Union Elementary School District,KG,8,551704700,1795818,213.014,0.693,35.416534000000006,-119.523298,2018
CA,0606750,Byron Union Elementary School District,KG,8,181613144,21816964,70.12100000000001,8.424,37.851664,-121.66113899999999,2018
CA,0606810,Cajon Valley Union Elementary School District,KG,8,170400227,668600,65.792,0.258,32.789118,-116.902681,2018
CA,0606960,Caliente Union Elementary School District,KG,8,699215197,159036,269.969,0.061,35.329265,-118.529113,2018
CA,0607140,Cambrian Elementary School District,KG,8,10740755,14910,4.147,0.006,37.270229,-121.93247099999999,2018
CA,0607170,Camino Union Elementary School District,KG,8,268230837,2345126,103.565,0.905,38.835084,-120.631041,2018
CA,0607200,Campbell Union Elementary School District,KG,8,33627833,57451,12.984000000000002,0.022000000000000002,37.28969,-121.955753,2018
CA,0607260,Camptonville Elementary School District,KG,8,135672004,10983925,52.383,4.2410000000000005,39.430875,-121.10058899999999,2018
CA,0607350,Canyon Elementary School District,KG,8,9964261,140250,3.847,0.054000000000000006,37.822546,-122.160352,2018
CA,0607410,Capay Joint Union Elementary School District,KG,8,59843604,1334643,23.105999999999998,0.515,39.793318,-122.09466699999999,2018
CA,0607470,Cardiff Elementary School District,KG,6,7562768,24238472,2.92,9.359,33.034264,-117.292301,2018
CA,0607680,Cascade Union Elementary School District,KG,8,67950858,2347891,26.236,0.907,40.461112,-122.305034,2018
CA,0607740,Castaic Union School District,KG,6,392159731,13307128,151.414,5.138,34.531278,-118.64730700000001,2018
CA,0607770,Castle Rock Union Elementary School District,KG,8,477735427,1936546,184.455,0.748,41.110642,-122.295225,2018
CA,0607840,Cayucos Elementary School District,KG,8,126992458,73156957,49.032,28.246,35.478584999999995,-120.894745,2018
CA,0607950,Central Elementary School District,KG,8,14624650,3447,5.647,0.001,34.112055,-117.59595700000001,2018
CA,0607980,Central Union Elementary School District,KG,8,455493129,295756,175.86700000000002,0.114,36.1791,-119.844123,2018
CA,0608070,Centralia Elementary School District,KG,6,15144742,610,5.847,0.0,33.84115,-118.01359599999999,2018
CA,0608250,Chatom Union Elementary School District,KG,8,165049409,477368,63.726000000000006,0.184,37.471005,-120.96271200000001,2018
CA,0608340,Chicago Park Elementary School District,KG,8,17086209,720370,6.597,0.278,39.141434000000004,-120.97456799999999,2018
CA,0608520,Chowchilla Elementary School District,KG,8,284429000,617018,109.819,0.23800000000000002,37.105470000000004,-120.19745400000001,2018
CA,0608580,Chualar Union Elementary School District,KG,8,171474035,264895,66.206,0.102,36.589737,-121.474644,2018
CA,0608610,Chula Vista Elementary School District,KG,6,256943697,12122176,99.20700000000001,4.68,32.626867,-116.963508,2018
CA,0608640,Cienega Union Elementary School District,KG,8,183946291,22880,71.02199999999999,0.009000000000000001,36.703662,-121.39803500000001,2018
CA,0608700,Cinnabar Elementary School District,KG,6,6456714,0,2.4930000000000003,0.0,38.256265,-122.66541799999999,2018
CA,0608850,Clay Joint Elementary School District,KG,8,13373767,276518,5.164,0.107,36.557671,-119.512328,2018
CA,0608880,Clear Creek Elementary School District,KG,8,78975151,118964,30.491999999999997,0.046,39.120098,-121.168127,2018
CA,0609240,Coffee Creek Elementary School District,KG,8,927376110,2326281,358.06199999999995,0.898,41.203476,-122.709736,2018
CA,0609270,Cold Spring Elementary School District,KG,6,9853642,1410,3.805,0.001,34.447443,-119.65556000000001,2018
CA,0609300,Colfax Elementary School District,KG,8,199729354,1591914,77.116,0.615,39.111833000000004,-120.877969,2018
CA,0609330,College Elementary School District,KG,8,1484257263,14737701,573.075,5.69,34.673317,-119.74361599999999,2018
CA,0609450,Columbia Elementary School District,KG,8,50265511,562852,19.408,0.217,40.610287,-122.30364399999999,2018
CA,0609480,Columbia Union Elementary School District,KG,8,174304845,25586864,67.29899999999999,9.879,38.043617,-120.42853600000001,2018
CA,0609510,Columbine Elementary School District,KG,8,45384165,0,17.523,0.0,35.830809,-119.21043600000002,2018
CA,0609780,Corning Union Elementary School District,KG,8,422187491,3172398,163.00799999999998,1.225,39.926753999999995,-122.24329499999999,2018
CA,0609990,Cottonwood Union Elementary School District,KG,8,379934355,2046723,146.69299999999998,0.79,40.424833,-122.625257,2018
CA,0610230,Cuddeback Union Elementary School District,KG,8,164741113,322408,63.607,0.124,40.546085,-123.965827,2018
CA,0610290,Cupertino Union Elementary School District,KG,8,109441234,339868,42.255,0.131,37.306490999999994,-122.08063999999999,2018
CA,0610320,Curtis Creek Elementary School District,KG,8,92641547,574685,35.769,0.222,37.953883000000005,-120.30634199999999,2018
CA,0610380,Cutten Elementary School District,KG,6,30325396,0,11.709000000000001,0.0,40.743283,-124.12538899999998,2018
CA,0610440,Cypress Elementary School District,KG,6,15919953,23012,6.147,0.009000000000000001,33.822282,-118.04313700000002,2018
CA,0610710,Dehesa Elementary School District,KG,8,52969965,287446,20.452,0.111,32.779540999999995,-116.832604,2018
CA,0610740,Del Mar Union Elementary School District,KG,6,38756208,29368287,14.964,11.339,32.948267,-117.254919,2018
CA,0610890,Delano Union Elementary School District,KG,8,453701331,1780105,175.175,0.687,35.700562,-119.067167,2018
CA,0610980,Delphic Elementary School District,KG,8,18657414,5795,7.204,0.002,41.698645,-122.580666,2018
CA,0611130,Di Giorgio Elementary School District,KG,8,136580663,84638,52.733999999999995,0.033,35.260323,-118.77978300000001,2018
CA,0611220,Dixie Elementary School District,KG,8,48605367,23215639,18.767,8.964,38.028517,-122.52928899999999,2018
CA,0611430,Douglas City Elementary School District,KG,8,343810502,32384,132.746,0.013000000000000001,40.591122999999996,-122.870223,2018
CA,0611490,Dry Creek Joint Elementary School District,KG,8,36205884,0,13.979000000000001,0.0,38.743204999999996,-121.33691200000001,2018
CA,0611550,Ducor Union Elementary School District,KG,8,514862125,42045,198.78900000000002,0.016,35.857915999999996,-118.94544199999999,2018
CA,0611610,Dunham Elementary School District,KG,6,18890338,0,7.294,0.0,38.315692999999996,-122.757456,2018
CA,0611670,Dunsmuir Elementary School District,KG,8,188978801,713186,72.965,0.275,41.213525,-122.392494,2018
CA,0611760,Earlimart Elementary School District,KG,8,233247328,266703,90.057,0.10300000000000001,35.873666,-119.28155100000001,2018
CA,0611850,East Whittier City Elementary School District,KG,8,32480783,26528,12.540999999999999,0.01,33.951789,-118.008458,2018
CA,0611910,Eastside Union Elementary School District,KG,8,657896792,478909,254.015,0.185,34.740641,-117.899528,2018
CA,0611940,Edison Elementary School District,KG,8,124249501,1805,47.973,0.001,35.337663,-118.815201,2018
CA,0612030,El Centro Elementary School District,KG,8,27147653,21575,10.482000000000001,0.008,32.796211,-115.56253899999999,2018
CA,0612090,El Monte City School District,KG,8,27209071,2127761,10.505,0.8220000000000001,34.08331,-118.029054,2018
CA,0612150,El Nido Elementary School District,KG,8,194728517,960842,75.185,0.371,37.138564,-120.505641,2018
CA,0612360,Elk Hills Elementary School District,KG,8,128344997,925371,49.553999999999995,0.35700000000000004,35.306212,-119.390173,2018
CA,0612420,Elkins Elementary School District,KG,8,714486628,654921,275.865,0.253,39.870721,-122.708129,2018
CA,0612600,Elverta Joint Elementary School District,KG,8,64094764,36883,24.747,0.013999999999999999,38.739206,-121.48065700000001,2018
CA,0612690,Empire Union Elementary School District,KG,8,63327000,539330,24.451,0.20800000000000002,37.646496,-120.86981399999999,2018
CA,0612750,Encinitas Union Elementary School District,KG,6,60059714,32884934,23.189,12.697000000000001,33.059668,-117.282211,2018
CA,0612810,Enterprise Elementary School District,KG,8,30416915,617699,11.744000000000002,0.23800000000000002,40.568414000000004,-122.342951,2018
CA,0612880,Escondido Union Elementary School District,KG,8,197214362,3109514,76.145,1.2009999999999998,33.133831,-117.085696,2018
CA,0612960,Etiwanda Elementary School District,KG,8,110145646,21276,42.527,0.008,34.158888,-117.507246,2018
CA,0613080,Eureka Union Elementary School District,KG,8,37232114,12566950,14.375,4.852,38.737818,-121.187527,2018
CA,0613140,Evergreen Elementary School District,KG,8,77055997,13531,29.750999999999998,0.005,37.294272,-121.756852,2018
CA,0613170,Evergreen Union Elementary School District,KG,8,1479351727,5810548,571.181,2.2430000000000003,40.273255,-122.591237,2018
CA,0613290,Fairfax Elementary School District,KG,8,27139738,0,10.479000000000001,0.0,35.337043,-118.933995,2018
CA,0613500,Fallbrook Union Elementary School District,KG,8,665295267,99500323,256.872,38.417,33.380238,-117.3901,2018
CA,0613710,Feather Falls Union Elementary School District,KG,8,225146745,13160251,86.93,5.081,39.621038,-121.24816000000001,2018
CA,0613740,Fieldbrook Elementary School District,KG,8,21670139,5749,8.367,0.002,40.962809,-124.031079,2018
CA,0613860,Flournoy Union Elementary School District,KG,8,297057771,7957265,114.695,3.072,39.895949,-122.41089299999999,2018
CA,0613980,Foresthill Union Elementary School District,KG,8,1277891829,10171686,493.397,3.927,39.082805,-120.56404199999999,2018
CA,0614010,Forestville Union Elementary School District,KG,8,68193930,342257,26.33,0.132,38.483462,-122.911505,2018
CA,0614040,Forks of Salmon Elementary School District,KG,8,1665938719,4125720,643.2230000000001,1.5930000000000002,41.266394,-123.17051699999999,2018
CA,0614130,Fort Ross Elementary School District,KG,8,187038247,150606387,72.21600000000001,58.148999999999994,38.543292,-123.264374,2018
CA,0614220,Fountain Valley Elementary School District,KG,8,20026563,21583,7.732,0.008,33.695734,-117.960085,2018
CA,0614340,Franklin Elementary School District,KG,8,40269037,54882,15.548,0.021,39.119533000000004,-121.708145,2018
CA,0614370,Franklin-McKinley Elementary School District,KG,8,27661037,18008,10.68,0.006999999999999999,37.302768,-121.845409,2018
CA,0614490,French Gulch-Whiskeytown Elementary School District,KG,8,485468448,12990793,187.44,5.016,40.724478999999995,-122.60228899999998,2018
CA,0614520,Freshwater Elementary School District,KG,6,56147489,403016,21.679000000000002,0.156,40.789984999999994,-124.048491,2018
CA,0614700,Fruitvale Elementary School District,KG,8,25967991,915779,10.026,0.354,35.381596,-119.086706,2018
CA,0614730,Fullerton Elementary School District,KG,8,51763171,28063,19.986,0.011000000000000001,33.882687,-117.930724,2018
CA,0614790,Galt Joint Union Elementary School District,KG,8,155687005,1263338,60.111000000000004,0.488,38.255117999999996,-121.31276000000001,2018
CA,0614910,Garfield Elementary School District,KG,6,115726325,12472,44.681999999999995,0.005,40.712751000000004,-124.04743300000001,2018
CA,0614940,Garvey Elementary School District,KG,8,11664643,120610,4.504,0.047,34.058766,-118.09643,2018
CA,0614970,Gazelle Union Elementary School District,KG,8,212281225,1024152,81.962,0.395,41.519509,-122.58125600000001,2018
CA,0615000,General Shafter Elementary School District,KG,8,432662696,656450,167.05200000000002,0.253,35.041090000000004,-118.971966,2018
CA,0615090,Gerber Union Elementary School District,KG,8,153180872,955345,59.143,0.369,40.058069,-122.219296,2018
CA,0615390,Gold Oak Union Elementary School District,KG,8,134638555,64065,51.983999999999995,0.025,38.684773,-120.72108700000001,2018
CA,0615450,Gold Trail Union Elementary School District,KG,8,121530615,0,46.923,0.0,38.784385,-120.91713500000002,2018
CA,0615480,Golden Feather Union Elementary School District,KG,8,517062550,21292535,199.639,8.221,39.734099,-121.488887,2018
CA,0615510,Goleta Union Elementary School District,KG,6,231909484,135287260,89.541,52.235,34.453416,-119.886045,2018
CA,0615600,Gorman Elementary School District,KG,8,390166404,6436792,150.644,2.485,34.710648,-118.756386,2018
CA,0615690,Grant Elementary School District,KG,8,63206058,326621,24.404,0.126,40.532657,-122.482426,2018
CA,0615780,Grass Valley Elementary School District,KG,8,150357611,151132,58.053000000000004,0.057999999999999996,39.215439,-121.054925,2018
CA,0615810,Gratton Elementary School District,KG,8,13086307,0,5.053,0.0,37.572967999999996,-120.787557,2018
CA,0615840,Gravenstein Union Elementary School District,KG,8,25030839,0,9.664,0.0,38.360397,-122.784213,2018
CA,0615870,Graves Elementary School District,KG,6,18348247,0,7.084,0.0,36.705299,-121.710476,2018
CA,0615990,Green Point Elementary School District,KG,8,295966085,312252,114.273,0.121,41.014907,-123.84464399999999,2018
CA,0616050,Greenfield Union School District,KG,8,58796392,0,22.701,0.0,35.271355,-118.996702,2018
CA,0616080,Greenfield Union Elementary School District,KG,8,685819892,6058371,264.797,2.339,36.184338000000004,-121.343777,2018
CA,0616110,Grenada Elementary School District,KG,8,139536306,724519,53.875,0.28,41.6351,-122.54665800000001,2018
CA,0616260,Guadalupe Union Elementary School District,KG,8,93703767,39385690,36.179,15.207,34.940269,-120.62007,2018
CA,0616300,Cucamonga Elementary School District,KG,8,53900755,53055,20.811,0.02,34.072924,-117.56044399999999,2018
CA,0616320,Guerneville Elementary School District,KG,8,81317024,671381,31.397,0.259,38.550149,-122.990398,2018
CA,0616470,Hanford Elementary School District,KG,8,33566494,0,12.96,0.0,36.330818,-119.65052299999999,2018
CA,0616530,Happy Camp Union Elementary School District,KG,8,935196404,2946500,361.08099999999996,1.138,41.818903999999996,-123.552484,2018
CA,0616560,Happy Valley Elementary School District,KG,6,17069164,0,6.59,0.0,37.046154,-121.981378,2018
CA,0616570,Happy Valley Union Elementary School District,KG,8,99389521,550360,38.375,0.212,40.457224,-122.421833,2018
CA,0616620,Harmony Union School District,KG,8,126364797,295030,48.79,0.114,38.381932,-122.99351200000001,2018
CA,0616650,Hart-Ransom Union Elementary School District,KG,8,67848908,648001,26.197,0.25,37.657879,-121.131824,2018
CA,0616680,Hawthorne Elementary School District,KG,8,10162596,3818,3.924,0.001,33.915886,-118.345271,2018
CA,0616830,Heber Elementary School District,KG,8,30169175,0,11.648,0.0,32.732501,-115.511412,2018
CA,0616860,Helendale Elementary School District,KG,6,255064104,1917254,98.48100000000001,0.74,34.760677,-117.350103,2018
CA,0617040,Hermosa Beach City Elementary School District,KG,12,3692287,11667552,1.426,4.505,33.869819,-118.40529599999999,2018
CA,0617160,Hickman Community Charter School District,KG,8,50128261,700672,19.355,0.271,37.605271,-120.733483,2018
CA,0617190,Hillsborough City Elementary School District,KG,8,16135055,0,6.23,0.0,37.557077,-122.35850900000001,2018
CA,0617340,Hollister School District,KG,8,97578999,42757,37.675,0.017,36.832725,-121.39839599999999,2018
CA,0617490,Hope Elementary School District,KG,6,25833112,17993693,9.974,6.947,34.41983,-119.766434,2018
CA,0617520,Hope Elementary School District,KG,8,37449316,0,14.459000000000001,0.0,36.010021,-119.060689,2018
CA,0617580,Horicon Elementary School District,KG,8,394571642,148210546,152.345,57.224,38.702221,-123.35737900000001,2018
CA,0617620,Hornbrook Elementary School District,KG,8,615397734,5595528,237.606,2.16,41.946647999999996,-122.645576,2018
CA,0617640,Hot Springs Elementary School District,KG,8,1378957901,1961,532.419,0.001,35.849821999999996,-118.401537,2018
CA,0617760,Howell Mountain Elementary School District,KG,12,42289977,407720,16.328,0.157,38.580137,-122.44782099999999,2018
CA,0617850,Hueneme Elementary School District,KG,8,18882513,52732931,7.291,20.36,34.145319,-119.21656899999999,2018
CA,0617880,Hughes-Elizabeth Lakes Union Elementary School District,KG,8,290416810,1024648,112.131,0.396,34.664086,-118.497151,2018
CA,0618030,Huntington Beach City Elementary School District,KG,8,35032242,102610501,13.526,39.618,33.673571,-118.02503300000001,2018
CA,0618120,Hydesville Elementary School District,KG,8,56091832,130576,21.656999999999996,0.05,40.550847,-124.081515,2018
CA,0618160,"Igo, Ono, Platina Union Elementary School District",KG,8,805311950,780396,310.933,0.301,40.444488,-122.75108700000001,2018
CA,0618240,Indian Diggings Elementary School District,KG,8,162047665,7661,62.567,0.003,38.566103999999996,-120.50121499999999,2018
CA,0618270,Indian Springs Elementary School District,KG,8,448897065,3908529,173.32,1.5090000000000001,41.09691,-121.878047,2018
CA,0618510,Island Union Elementary School District,KG,8,110117659,15365,42.516999999999996,0.006,36.347775,-119.882304,2018
CA,0618660,Jacoby Creek Elementary School District,KG,8,54886316,5086897,21.191999999999997,1.964,40.828749,-124.030065,2018
CA,0618690,Jamestown Elementary School District,KG,8,411910295,20696909,159.039,7.9910000000000005,37.84753,-120.486557,2018
CA,0618730,Jamul-Dulzura Union Elementary School District,KG,8,419020533,3784050,161.785,1.4609999999999999,32.694344,-116.77551399999999,2018
CA,0618780,Janesville Union Elementary School District,KG,8,320867058,23001887,123.887,8.881,40.326309,-120.594103,2018
CA,0618810,Jefferson Elementary School District,KG,8,456706261,165519,176.335,0.064,36.512109,-121.126065,2018
CA,0618840,Jefferson Elementary School District,KG,8,356557282,61969,137.668,0.024,37.625714,-121.43778600000002,2018
CA,0618870,Jefferson Elementary School District,KG,8,24724122,30852871,9.546,11.912,37.69021,-122.496269,2018
CA,0619050,Johnstonville Elementary School District,KG,8,48749006,143940,18.822,0.055999999999999994,40.352478000000005,-120.58141200000001,2018
CA,0619140,Julian Union Elementary School District,KG,8,1599610128,3887780,617.613,1.501,33.047022999999996,-116.459073,2018
CA,0619170,Junction City Elementary School District,KG,8,365520241,631179,141.128,0.244,40.829014,-123.02285900000001,2018
CA,0619200,Junction Elementary School District,KG,8,43618896,348837,16.840999999999998,0.135,40.522853000000005,-122.25693799999999,2018
CA,0619230,Junction Elementary School District,KG,8,999592193,4808175,385.945,1.8559999999999999,41.538608,-123.49301000000001,2018
CA,0619380,Kentfield Elementary School District,KG,8,57146404,1877772,22.064,0.725,37.957153000000005,-122.60121200000002,2018
CA,0619410,Kenwood Elementary School District,KG,6,61469430,107202,23.733,0.040999999999999995,38.418603999999995,-122.533046,2018
CA,0619440,Keppel Union Elementary School District,KG,8,783133914,1944429,302.37,0.7509999999999999,34.494489,-117.86197800000001,2018
CA,0619590,Kernville Union Elementary School District,KG,8,713986990,33290926,275.672,12.854000000000001,35.622875,-118.478825,2018
CA,0619620,Keyes Union Elementary School District,KG,8,25058505,0,9.675,0.0,37.547722,-120.906704,2018
CA,0619680,King City Union Elementary School District,KG,8,602118842,5600048,232.479,2.162,36.242024,-121.122685,2018
CA,0619740,Kings River Union Elementary School District,KG,8,35348029,48200,13.648,0.019,36.501124,-119.471305,2018
CA,0619770,Kings River-Hardwick Union Elementary School District,KG,8,116587052,0,45.015,0.0,36.40249,-119.619403,2018
CA,0619800,Kingsburg Elementary Charter School District,KG,8,121936005,552899,47.08,0.213,36.495002,-119.58750800000001,2018
CA,0619860,Kirkwood Elementary School District,KG,8,47354361,936613,18.284000000000002,0.36200000000000004,39.847143,-122.140925,2018
CA,0619890,Kit Carson Union Elementary School District,KG,8,180049134,0,69.517,0.0,36.321793,-119.532857,2018
CA,0619920,Klamath River Union Elementary School District,KG,8,765338248,2381164,295.499,0.919,41.832327,-122.987963,2018
CA,0619980,Kneeland Elementary School District,KG,8,312380570,411149,120.611,0.159,40.687248,-123.92413300000001,2018
CA,0620010,Knights Ferry Elementary School District,KG,8,238725788,272487,92.17299999999999,0.105,37.793469,-120.687526,2018
CA,0620040,Knightsen Elementary School District,KG,8,76119827,4618166,29.39,1.7830000000000001,37.965167,-121.6123,2018
CA,0620190,La Habra City Elementary School District,KG,8,17281986,15869,6.672999999999999,0.006,33.927214,-117.94027700000001,2018
CA,0620250,La Mesa-Spring Valley School District,KG,8,64794576,3627686,25.017,1.401,32.748758,-116.995833,2018
CA,0620310,Lafayette Elementary School District,KG,8,48834480,283790,18.855,0.11,37.895548,-122.114021,2018
CA,0620430,Laguna Joint Elementary School District,KG,6,94964183,774767,36.666,0.299,38.19242,-122.77458999999999,2018
CA,0620460,Pacifica School District,KG,8,40450125,67644163,15.618,26.118000000000002,37.597825,-122.51286200000001,2018
CA,0620490,Lagunita Elementary School District,KG,6,44115533,119368,17.033,0.046,36.787296000000005,-121.58901000000002,2018
CA,0620520,Lagunitas Elementary School District,KG,8,41420304,1138280,15.992,0.439,38.007690999999994,-122.672184,2018
CA,0620610,Lake Elementary School District,KG,8,28042879,225166,10.827,0.087,39.771652,-122.145711,2018
CA,0620700,Lakeside Joint Elementary School District,KG,8,81921707,70374,31.63,0.027000000000000003,37.188308,-122.05988400000001,2018
CA,0620730,Lakeside Union School District,KG,8,425820810,4752762,164.41,1.835,35.190042,-119.19168700000002,2018
CA,0620760,Lakeside Union Elementary School District,KG,8,143100581,33302,55.251000000000005,0.013000000000000001,36.232859000000005,-119.609233,2018
CA,0620790,Lakeside Union Elementary School District,KG,8,175530594,6980947,67.773,2.695,32.907187,-116.881753,2018
CA,0620850,Lamont Elementary School District,KG,8,60037925,152441,23.180999999999997,0.059000000000000004,35.28247,-118.91265800000001,2018
CA,0620880,Lancaster Elementary School District,KG,8,215731517,2349966,83.294,0.907,34.74077,-118.12194699999999,2018
CA,0620910,Larkspur Elementary School District,KG,8,13076914,11860420,5.0489999999999995,4.579,37.924139000000004,-122.499366,2018
CA,0621090,Lassen View Union Elementary School District,KG,8,947973997,3324504,366.015,1.284,40.194301,-121.85649199999999,2018
CA,0621180,Latrobe Elementary School District,KG,8,143176486,0,55.281000000000006,0.0,38.569159,-120.982956,2018
CA,0621210,Lawndale Elementary School District,KG,8,9454269,87867,3.65,0.034,33.889251,-118.346094,2018
CA,0621240,Le Grand Union Elementary School District,KG,8,202480730,0,78.178,0.0,37.215855,-120.20082099999999,2018
CA,0621330,Lemon Grove Elementary School District,KG,8,13934700,0,5.38,0.0,32.735087,-117.036671,2018
CA,0621360,Lemoore Union Elementary School District,KG,8,95790801,0,36.985,0.0,36.319674,-119.79199799999999,2018
CA,0621420,Lennox Elementary School District,KG,8,4259527,0,1.645,0.0,33.938986,-118.357583,2018
CA,0621450,Richland Union School District,KG,8,220453685,0,85.118,0.0,35.503965,-119.215548,2018
CA,0621480,Lewiston Elementary School District,KG,8,266070955,7814052,102.73100000000001,3.017,40.742723,-122.813891,2018
CA,0621540,Liberty Elementary School District,KG,6,21101980,0,8.148,0.0,38.282745,-122.709724,2018
CA,0621570,Liberty Elementary School District,KG,8,32524414,13107,12.558,0.005,36.26618,-119.304694,2018
CA,0621660,Lincoln Elementary School District,KG,6,94646730,605767,36.543,0.23399999999999999,38.150101,-122.693895,2018
CA,0621900,Linns Valley-Poso Flat Union School District,KG,8,846007232,1214035,326.645,0.469,35.6017,-118.70953,2018
CA,0621930,Little Lake City Elementary School District,KG,8,13832970,147593,5.341,0.057,33.93444,-118.082531,2018
CA,0621960,Little Shasta Elementary School District,KG,8,410839805,2017313,158.626,0.779,41.698277000000004,-122.30581799999999,2018
CA,0621990,Live Oak Elementary School District,KG,8,7891550,64739371,3.0469999999999997,24.996,36.954599,-121.975531,2018
CA,0622170,Livingston Union School District,KG,8,111509809,277320,43.053999999999995,0.107,37.356797,-120.74653700000002,2018
CA,0622320,Loleta Union Elementary School District,KG,8,63199329,12993337,24.401,5.0169999999999995,40.664322999999996,-124.250456,2018
CA,0622350,Loma Prieta Joint Union Elementary School District,KG,8,103638333,279482,40.015,0.10800000000000001,37.121796999999994,-121.876208,2018
CA,0622380,Las Lomitas Elementary School District,KG,8,20773628,85453,8.021,0.033,37.422146000000005,-122.215902,2018
CA,0622560,Loomis Union Elementary School District,KG,8,130498322,7971931,50.386,3.0780000000000003,38.830725,-121.162107,2018
CA,0622650,Los Altos Elementary School District,KG,8,53473090,0,20.646,0.0,37.355635,-122.130105,2018
CA,0622830,Los Gatos Union Elementary School District,KG,8,119099961,2019399,45.985,0.78,37.188829,-121.93798899999999,2018
CA,0622890,Los Nietos Elementary School District,KG,8,8968206,95211,3.463,0.037000000000000005,33.962551,-118.06801100000001,2018
CA,0622920,Los Olivos Elementary School District,KG,8,956085393,684617,369.147,0.264,34.789840000000005,-119.887326,2018
CA,0622950,Lost Hills Union Elementary School District,KG,8,1320012404,4711987,509.66,1.819,35.661919,-119.912108,2018
CA,0623010,Lowell Joint Elementary School District,KG,8,24536297,4740,9.474,0.002,33.948384999999995,-117.960498,2018
CA,0623040,Lucerne Elementary School District,KG,8,78086395,36746376,30.149,14.187999999999999,39.090779,-122.785045,2018
CA,0623130,Luther Burbank Elementary School District,KG,8,669315,0,0.258,0.0,37.322753999999996,-121.92748200000001,2018
CA,0623430,Magnolia Elementary School District,KG,6,13476305,0,5.202999999999999,0.0,33.822627000000004,-117.97528899999999,2018
CA,0623460,Magnolia Union Elementary School District,KG,8,503576167,0,194.43200000000002,0.0,33.169785,-115.3167,2018
CA,0623550,Manchester Union Elementary School District,KG,8,259379164,90284772,100.147,34.859,38.97664,-123.604802,2018
CA,0623700,Manzanita Elementary School District,KG,8,29400975,227326,11.352,0.08800000000000001,39.326302,-121.66389699999999,2018
CA,0623730,Maple Creek Elementary School District,KG,8,373226363,516896,144.10399999999998,0.2,40.728660999999995,-123.73733,2018
CA,0623760,Maple Elementary School District,KG,8,87791240,0,33.896,0.0,35.498658,-119.390543,2018
CA,0623800,Marcum-Illinois Union Elementary School District,KG,8,160120886,2737707,61.823,1.057,38.854758000000004,-121.56839699999999,2018
CA,0623970,Mark Twain Union Elementary School District,KG,8,585431484,11250155,226.03599999999997,4.343999999999999,38.023358,-120.63001000000001,2018
CA,0624000,Mark West Union Elementary School District,KG,6,63230561,19899,24.413,0.008,38.517071,-122.746371,2018
CA,0624180,McCabe Union Elementary School District,KG,8,240383423,23943,92.81299999999999,0.009000000000000001,32.712192,-115.682455,2018
CA,0624210,McCloud Union Elementary School District,KG,8,1732703255,4288431,669.0,1.656,41.335364,-121.860127,2018
CA,0624300,McKinleyville Union Elementary School District,KG,8,121999224,713071,47.104,0.275,40.977114,-123.95415,2018
CA,0624330,McKittrick Elementary School District,KG,8,446217992,0,172.28599999999997,0.0,35.368103000000005,-119.76216799999999,2018
CA,0624360,McSwain Union Elementary School District,KG,8,293237978,2888542,113.22,1.115,37.251090000000005,-120.63063600000001,2018
CA,0624390,Meadows Union Elementary School District,KG,8,48464343,0,18.712,0.0,32.789667,-115.499423,2018
CA,0624540,Menifee Union School District,KG,8,151615254,449104,58.538999999999994,0.17300000000000001,33.66597,-117.17301599999999,2018
CA,0624570,Menlo Park City Elementary School District,KG,8,16563222,0,6.395,0.0,37.455875,-122.183412,2018
CA,0624600,Merced City Elementary School District,KG,8,236212386,2145779,91.20200000000001,0.828,37.366419,-120.440326,2018
CA,0624630,Merced River Union Elementary School District,KG,8,156254553,582264,60.33,0.225,37.464759,-120.518247,2018
CA,0624690,Meridian Elementary School District,KG,8,64332882,1031884,24.839000000000002,0.39799999999999996,39.139606,-121.87995900000001,2018
CA,0624720,Mesa Union Elementary School District,KG,8,73425549,532687,28.35,0.20600000000000002,34.276590999999996,-119.08335,2018
CA,0624780,Midway Elementary School District,KG,8,223775888,0,86.4,0.0,35.201446000000004,-119.56005400000001,2018
CA,0624870,Mill Valley Elementary School District,KG,8,53927684,17955056,20.822,6.932,37.879059000000005,-122.568526,2018
CA,0624900,Millbrae Elementary School District,KG,8,45066585,42510575,17.4,16.413,37.619296999999996,-122.36456899999999,2018
CA,0624930,Millville Elementary School District,KG,8,248862410,1045256,96.086,0.40399999999999997,40.576524,-122.100803,2018
CA,0625110,Mission Union Elementary School District,KG,8,90708898,1922171,35.023,0.742,36.382886,-121.41236799999999,2018
CA,0625130,Modesto City Elementary School District,KG,8,74630576,725324,28.815,0.28,37.630292,-121.00439399999999,2018
CA,0625290,Monroe Elementary School District,KG,8,28431723,103327,10.978,0.04,36.562378,-119.739254,2018
CA,0625350,Monson-Sultana Joint Union Elementary School District,KG,8,57001329,0,22.008000000000003,0.0,36.518908,-119.331093,2018
CA,0625380,Montague Elementary School District,KG,8,98981796,832887,38.217,0.322,41.758401,-122.499773,2018
CA,0625410,Monte Rio Union Elementary School District,KG,8,97230379,43332177,37.541,16.730999999999998,38.442765,-123.089021,2018
CA,0625500,Montecito Union Elementary School District,KG,6,23968484,25052648,9.254,9.673,34.416848,-119.640309,2018
CA,0625650,Montgomery Elementary School District,KG,8,122965334,14765,47.477,0.006,38.547175,-123.103725,2018
CA,0625740,Moraga Elementary School District,KG,8,44587504,135733,17.215,0.052000000000000005,37.831971,-122.10592199999999,2018
CA,0625770,Moreland School District,KG,8,14401257,0,5.56,0.0,37.296333000000004,-121.980539,2018
CA,0625980,Mother Lode Union Elementary School District,KG,8,160541056,339819,61.985,0.131,38.632532,-120.84401499999998,2018
CA,0626040,Mount Shasta Union Elementary School District,KG,8,349879763,2294021,135.089,0.8859999999999999,41.304513,-122.351828,2018
CA,0626070,Mountain Elementary School District,KG,6,35868275,0,13.849,0.0,37.060465,-121.917974,2018
CA,0626130,Mountain House Elementary School District,KG,8,70258461,1041286,27.127,0.402,37.744419,-121.57881100000002,2018
CA,0626190,Mountain View Elementary School District,KG,8,11747679,703195,4.5360000000000005,0.272,34.056773,-118.02150800000001,2018
CA,0626220,Mountain View Elementary School District,KG,8,35347514,22016,13.648,0.009000000000000001,34.01774,-117.584026,2018
CA,0626280,Mountain View Whisman Elementary School District,KG,8,43487275,9223664,16.791,3.5610000000000004,37.414028,-122.070679,2018
CA,0626340,Mount Baldy Joint Elementary School District,KG,8,74358671,0,28.71,0.0,34.25651,-117.606706,2018
CA,0626400,Mount Pleasant Elementary School District,KG,8,15882142,0,6.132000000000001,0.0,37.350151000000004,-121.78371399999999,2018
CA,0626430,Mulberry Elementary School District,KG,8,138219413,0,53.367,0.0,33.055732,-115.412406,2018
CA,0626460,Mupu Elementary School District,KG,8,103472343,10762,39.951,0.004,34.509069000000004,-119.04768999999999,2018
CA,0626670,National Elementary School District,KG,6,19665297,4262209,7.593,1.646,32.665862,-117.097361,2018
CA,0626820,Nevada City Elementary School District,KG,8,420581491,7033206,162.387,2.716,39.283837,-120.888699,2018
CA,0626970,New Hope Elementary School District,KG,8,86780155,3711578,33.506,1.433,38.157794,-121.520223,2018
CA,0627030,New Jerusalem Elementary School District,KG,8,99256942,1921543,38.323,0.742,37.65148,-121.310309,2018
CA,0627040,Mountain Union Elementary School District,KG,8,519834647,5621596,200.709,2.171,40.836346,-121.922693,2018
CA,0627120,Newcastle Elementary School District,KG,8,20827183,50642,8.041,0.02,38.875585,-121.144747,2018
CA,0627180,Newhall Elementary School District,KG,6,168025376,53100,64.875,0.021,34.369125,-118.58001200000001,2018
CA,0627300,Nicasio Elementary School District,KG,8,89642092,3550606,34.611,1.371,38.092903,-122.708413,2018
CA,0627450,Norris Elementary School District,KG,8,39569079,35845,15.277999999999999,0.013999999999999999,35.429354,-119.114503,2018
CA,0627480,North County Joint Union Elementary School District,KG,8,230521516,958123,89.005,0.37,36.925173,-121.370926,2018
CA,0627510,North Cow Creek Elementary School District,KG,8,42858545,165192,16.548,0.064,40.610157,-122.19754099999999,2018
CA,0627750,Nuestro Elementary School District,KG,8,24695236,55797,9.535,0.022000000000000002,39.193798,-121.690381,2018
CA,0627780,Nuview Union Elementary School District,KG,8,111296581,677928,42.972,0.262,33.816021,-117.11151799999999,2018
CA,0627810,Oak Grove Elementary School District,KG,8,55520745,12748,21.436999999999998,0.005,37.247948,-121.793953,2018
CA,0627840,Oak Grove Union Elementary School District,KG,8,39847571,73946,15.385,0.028999999999999998,38.442634999999996,-122.853127,2018
CA,0627870,Oak Run Elementary School District,KG,8,133899795,416304,51.699,0.161,40.708023,-121.95262199999999,2018
CA,0627900,Oak Valley Union Elementary School District,KG,8,78418151,75948,30.276999999999997,0.028999999999999998,36.232647,-119.411875,2018
CA,0627930,Oak View Union Elementary School District,KG,8,121098908,127201,46.757,0.049,38.250538,-121.14357,2018
CA,0628080,Oakley Union Elementary School District,KG,8,99044203,35301853,38.241,13.63,38.031299,-121.66078600000002,2018
CA,0628140,Ocean View Elementary School District,KG,8,34669031,864827,13.386,0.33399999999999996,33.718385999999995,-118.017803,2018
CA,0628170,Ocean View Elementary School District,KG,8,193029859,180962019,74.529,69.87,34.091797,-119.041417,2018
CA,0628320,Old Adobe Union Elementary School District,KG,6,196633884,40059905,75.921,15.467,38.199883,-122.51240800000001,2018
CA,0628470,Ontario-Montclair School District,KG,8,62820239,0,24.255,0.0,34.061914,-117.657766,2018
CA,0628530,Orange Center Elementary School District,KG,8,13842453,27727,5.345,0.011000000000000001,36.672385,-119.77713700000001,2018
CA,0628680,Orchard Elementary School District,KG,8,15104620,0,5.832000000000001,0.0,37.383902,-121.908809,2018
CA,0628710,Orcutt Union Elementary School District,KG,8,574472392,114710809,221.805,44.29,34.821785,-120.458974,2018
CA,0628830,Orick Elementary School District,KG,8,144458128,1061933,55.776,0.41,41.357296000000005,-124.048654,2018
CA,0628860,Orinda Union Elementary School District,KG,8,65718865,3840269,25.374000000000002,1.483,37.892905999999996,-122.19554299999999,2018
CA,0628950,Oro Grande Elementary School District,KG,6,198883898,1258851,76.79,0.486,34.659913,-117.29000500000001,2018
CA,0629100,Oroville City Elementary School District,KG,8,216058236,8233223,83.421,3.179,39.491098,-121.437366,2018
CA,0629160,Outside Creek Elementary School District,KG,8,39229412,0,15.147,0.0,36.256322,-119.194088,2018
CA,0629220,Oxnard Elementary School District,KG,8,62412026,50273166,24.096999999999998,19.410999999999998,34.210609999999996,-119.23284699999999,2018
CA,0629280,Pacheco Union Elementary School District,KG,8,68267342,2225132,26.358,0.8590000000000001,40.508987,-122.29117,2018
CA,0629340,Pacific Elementary School District,KG,6,127190892,62594562,49.108999999999995,24.168000000000003,37.124573,-122.245276,2018
CA,0629400,Pacific Union Elementary School District,KG,8,50559182,44038,19.521,0.017,36.612458000000004,-119.759468,2018
CA,0629430,Pacific Union Elementary School District,KG,8,39752093,1926287,15.347999999999999,0.7440000000000001,40.902848,-124.100968,2018
CA,0629540,Palermo Union Elementary School District,KG,8,175438901,487937,67.737,0.188,39.399052000000005,-121.54474099999999,2018
CA,0629580,Palmdale Elementary School District,KG,8,185247579,2127626,71.524,0.821,34.578932,-118.083161,2018
CA,0629670,Palo Verde Union Elementary School District,KG,8,127310996,269947,49.155,0.10400000000000001,36.112364,-119.385131,2018
CA,0629770,Panoche Elementary School District,KG,8,871939821,2456,336.658,0.001,36.538696,-120.77346999999999,2018
CA,0629790,Paradise Elementary School District,KG,8,16626677,126490,6.42,0.049,37.620022,-121.061977,2018
CA,0630090,Peninsula Union Elementary School District,KG,8,10330258,1823,3.989,0.001,40.796057,-124.203346,2018
CA,0630180,Perris Elementary School District,KG,6,126795187,41199,48.956,0.016,33.773702,-117.29370700000001,2018
CA,0630230,Petaluma City Elementary School District,KG,6,86476880,1520593,33.389,0.5870000000000001,38.256766999999996,-122.617274,2018
CA,0630390,Pine Ridge Elementary School District,KG,8,962822331,16871208,371.74800000000005,6.513999999999999,37.109862,-118.93696499999999,2018
CA,0630450,Piner-Olivet Union Elementary School District,KG,6,35206736,21574,13.593,0.008,38.472569,-122.80069499999999,2018
CA,0630480,Pioneer Union Elementary School District,KG,8,599380148,148996,231.422,0.057999999999999996,38.61638,-120.528305,2018
CA,0630510,Pioneer Union Elementary School District,KG,8,45769234,0,17.672,0.0,36.360886,-119.69936000000001,2018
CA,0630520,Pioneer Union Elementary School District,KG,8,313831461,20712358,121.171,7.997000000000001,39.673314000000005,-121.367326,2018
CA,0630630,Pixley Union Elementary School District,KG,8,195221707,84940,75.376,0.033,35.971506,-119.33091399999999,2018
CA,0630720,Placer Hills Union Elementary School District,KG,8,132866086,1268068,51.3,0.49,39.009155,-120.99485700000001,2018
CA,0630780,Placerville Union Elementary School District,KG,8,124959698,528129,48.247,0.204,38.791675,-120.74576100000002,2018
CA,0630810,Plainsburg Union Elementary School District,KG,8,134001169,0,51.738,0.0,37.186911,-120.340951,2018
CA,0630840,Planada Elementary School District,KG,8,128840722,0,49.746,0.0,37.318217,-120.273857,2018
CA,0630870,Plaza Elementary School District,KG,8,64817029,17206,25.026,0.006999999999999999,39.702412,-122.093272,2018
CA,0630900,Pleasant Grove Joint Union Elementary School District,KG,8,134800912,362631,52.047,0.14,38.816922,-121.49444,2018
CA,0630930,Pleasant Ridge Union Elementary School District,KG,8,246957795,1844745,95.351,0.7120000000000001,39.062543,-121.107721,2018
CA,0630990,Pleasant Valley Elementary School District,KG,8,127735727,24048,49.318999999999996,0.009000000000000001,34.21356,-119.00601100000002,2018
CA,0631020,Pleasant Valley Joint Union Elementary School District,KG,8,283024783,0,109.27600000000001,0.0,35.794531,-120.54413000000001,2018
CA,0631050,Pleasant View Elementary School District,KG,8,46608575,0,17.996,0.0,36.040366,-119.17470700000001,2018
CA,0631180,Plumas Lake Elementary School District,KG,8,97104245,940073,37.492,0.363,39.020388,-121.531026,2018
CA,0631290,Pollock Pines Elementary School District,KG,8,502820100,12946730,194.14,4.999,38.836863,-120.458523,2018
CA,0631350,Pond Union Elementary School District,KG,8,343630078,3301201,132.67600000000002,1.275,35.740688,-119.46506000000001,2018
CA,0631380,Pope Valley Union Elementary School District,KG,12,247543479,2905785,95.57700000000001,1.122,38.667018,-122.40701200000001,2018
CA,0631470,Portola Valley Elementary School District,KG,8,51016589,158535,19.698,0.061,37.365221999999996,-122.232745,2018
CA,0631680,Raisin City Elementary School District,KG,8,110195036,0,42.547,0.0,36.583339,-119.96014,2018
CA,0631740,Rancho Santa Fe Elementary School District,KG,6,48060018,188500,18.555999999999997,0.073,33.042493,-117.19010700000001,2018
CA,0631830,Ravendale-Termo Elementary School District,KG,8,1825626504,19279047,704.878,7.444,40.847981,-120.398794,2018
CA,0631860,Ravenswood City Elementary School District,KG,8,20760973,16242235,8.016,6.271,37.489492,-122.13346000000001,2018
CA,0631920,Raymond-Knowles Union Elementary School District,KG,8,502931734,11866102,194.183,4.582,37.173707,-119.903081,2018
CA,0631980,Red Bluff Union Elementary School District,KG,8,304063175,2701714,117.399,1.043,40.148435,-122.310602,2018
CA,0632040,Redding Elementary School District,KG,8,65330894,2755903,25.224,1.064,40.552084,-122.394582,2018
CA,0632130,Redwood City Elementary School District,KG,8,74977487,20610330,28.949,7.957999999999999,37.486773,-122.231568,2018
CA,0632160,Reed Union Elementary School District,KG,8,17783612,28432544,6.8660000000000005,10.978,37.886727,-122.462579,2018
CA,0632250,Reeds Creek Elementary School District,KG,8,983267797,187146,379.642,0.07200000000000001,40.078809,-122.74783500000001,2018
CA,0632310,Rescue Union Elementary School District,KG,8,125448798,6627624,48.43600000000001,2.559,38.722064,-121.010921,2018
CA,0632340,Kashia Elementary School District,KG,8,171789,0,0.066,0.0,38.656603000000004,-123.33901999999999,2018
CA,0632400,Richfield Elementary School District,KG,8,60500561,1106820,23.359,0.42700000000000005,39.973471,-122.15767199999999,2018
CA,0632430,Richgrove Elementary School District,KG,8,68558613,0,26.471,0.0,35.829111,-119.140394,2018
CA,0632520,Richmond Elementary School District,KG,8,141689266,613574,54.707,0.237,40.346004,-120.70125,2018
CA,0632640,Rincon Valley Union Elementary School District,KG,6,159396313,554436,61.543,0.214,38.490621000000004,-122.63231499999999,2018
CA,0632710,Rio Bravo-Greeley Union Elementary School District,KG,8,244663294,699775,94.465,0.27,35.381395,-119.27195400000001,2018
CA,0632730,Rio Dell Elementary School District,KG,8,82040347,727218,31.676,0.281,40.441136,-124.09991299999999,2018
CA,0632760,Rio Elementary School District,KG,8,40116220,682986,15.489,0.264,34.223248,-119.14113799999998,2018
CA,0633210,Roberts Ferry Union Elementary School District,KG,8,235224865,17143432,90.821,6.619,37.634745,-120.56132099999999,2018
CA,0633240,Robla Elementary School District,KG,6,25662735,0,9.908,0.0,38.655109,-121.447322,2018
CA,0633270,Rockford Elementary School District,KG,8,27455978,162642,10.600999999999999,0.063,36.054964,-119.11636000000001,2018
CA,0633390,Romoland Elementary School District,KG,8,80712399,0,31.163,0.0,33.744289,-117.158298,2018
CA,0633480,Rosedale Union Elementary School District,KG,8,63951973,106480,24.691999999999997,0.040999999999999995,35.396167,-119.15993300000001,2018
CA,0633510,Roseland School District,KG,6,4216559,0,1.6280000000000001,0.0,38.426147,-122.73191899999999,2018
CA,0633570,Rosemead Elementary School District,KG,8,8034709,0,3.102,0.0,34.079240999999996,-118.07329399999999,2018
CA,0633600,Roseville City Elementary School District,KG,8,110076561,0,42.501000000000005,0.0,38.783504,-121.335746,2018
CA,0633660,Ross Elementary School District,KG,8,6178597,17048,2.386,0.006999999999999999,37.963573,-122.564144,2018
CA,0633690,Round Valley Joint Elementary School District,KG,8,476790136,4512133,184.09,1.742,37.405439,-118.630103,2018
CA,0633900,Salida Union Elementary School District,KG,8,64047515,656072,24.729,0.253,37.699618,-121.123051,2018
CA,0633930,Salinas City Elementary School District,KG,6,35432622,45591,13.681,0.018000000000000002,36.678859,-121.64886499999999,2018
CA,0634050,San Antonio Union Elementary School District,KG,8,1202466692,16090112,464.275,6.212000000000001,35.953567,-121.22538999999999,2018
CA,0634080,San Ardo Union Elementary School District,KG,8,633285912,6524334,244.513,2.519,36.046453,-120.787723,2018
CA,0634230,San Bruno Park Elementary School District,KG,8,16706620,37760003,6.45,14.579,37.626411,-122.38575700000001,2018
CA,0634290,San Carlos Elementary School District,KG,8,14356799,325574,5.542999999999999,0.126,37.499521,-122.26513200000001,2018
CA,0634770,San Lucas Union Elementary School District,KG,8,469776796,7000823,181.382,2.7030000000000003,36.172979999999995,-120.902723,2018
CA,0634920,San Mateo-Foster City Elementary School District,KG,8,72657366,37574556,28.053,14.508,37.548171999999994,-122.305604,2018
CA,0635010,San Miguel Joint Union Elementary School District,KG,8,485671523,19053208,187.519,7.356,35.784026000000004,-120.84604099999999,2018
CA,0635040,San Pasqual Union Elementary School District,KG,8,75230177,31817,29.046999999999997,0.012,33.089385,-116.985353,2018
CA,0635090,San Rafael City Elementary School District,KG,8,44626723,37828010,17.23,14.605,37.980912,-122.481698,2018
CA,0635220,San Ysidro Elementary School District,KG,6,74465599,718535,28.750999999999998,0.27699999999999997,32.574467,-116.97888300000001,2018
CA,0635490,Santa Clara Elementary School District,KG,8,44263640,1096976,17.09,0.424,34.412701,-119.00100400000001,2018
CA,0635590,Santa Cruz City Elementary School District,KG,5,99094925,152256243,38.260999999999996,58.786,36.953717,-122.0706,2018
CA,0635790,Santa Rita Union Elementary School District,KG,6,99416026,323138,38.385,0.125,36.751048,-121.591743,2018
CA,0635810,Santa Rosa Elementary School District,KG,6,36889570,85775,14.243,0.033,38.454774,-122.720671,2018
CA,0635880,Santee School District,KG,8,67809179,583804,26.180999999999997,0.225,32.857375,-116.998194,2018
CA,0635910,Saratoga Union Elementary School District,KG,8,61019776,63458,23.56,0.025,37.248715999999995,-122.052217,2018
CA,0635940,Saucelito Elementary School District,KG,8,45815655,0,17.69,0.0,35.978395,-119.187729,2018
CA,0635970,Saugus Union Elementary School District,KG,6,251495741,454832,97.103,0.17600000000000002,34.513282000000004,-118.478265,2018
CA,0636000,Sausalito Elementary School District,KG,8,32918087,21631447,12.71,8.352,37.848641,-122.51569199999999,2018
CA,0636030,Savanna Elementary School District,KG,6,6040792,0,2.332,0.0,33.814343,-118.00663600000001,2018
CA,0636100,Scotia Union Elementary School District,KG,8,229378837,2428219,88.564,0.938,40.428976,-123.954121,2018
CA,0636180,Sebastopol Union Elementary School District,KG,8,37925060,0,14.642999999999999,0.0,38.408936,-122.83482,2018
CA,0636210,Seeley Union Elementary School District,KG,8,59310555,132020,22.9,0.051,32.778145,-115.66683400000001,2018
CA,0636240,Seiad Elementary School District,KG,8,524469703,1098320,202.49900000000002,0.424,41.924212,-123.26080900000001,2018
CA,0636330,Semitropic Elementary School District,KG,8,269443504,0,104.03299999999999,0.0,35.635284000000006,-119.54543000000001,2018
CA,0636360,Sequoia Union Elementary School District,KG,8,91819336,3118304,35.452,1.204,36.358061,-119.052209,2018
CA,0636420,Shaffer Union Elementary School District,KG,8,2039341314,219802656,787.3939999999999,84.866,40.453033000000005,-120.21595400000001,2018
CA,0636570,Shasta Union Elementary School District,KG,8,134502195,983541,51.931999999999995,0.38,40.646236,-122.478776,2018
CA,0636660,Shiloh Elementary School District,KG,8,45682419,554557,17.637999999999998,0.214,37.618638,-121.134754,2018
CA,0636810,Silver Fork Elementary School District,KG,8,391847275,5276707,151.293,2.037,38.797094,-120.25678500000001,2018
CA,0636960,Snelling-Merced Falls Union Elementary School District,KG,8,335963815,2111728,129.716,0.815,37.519621,-120.403058,2018
CA,0636990,Solana Beach Elementary School District,KG,6,54591825,21634000,21.078000000000003,8.353,32.990814,-117.23532,2018
CA,0637110,Solvang Elementary School District,KG,8,92273274,737915,35.626999999999995,0.285,34.572728000000005,-120.063201,2018
CA,0637140,Somis Union Elementary School District,KG,8,82963755,731595,32.032,0.282,34.29404,-118.97957199999999,2018
CA,0637230,Sonora Elementary School District,KG,8,68892009,112605,26.599,0.043,37.955296000000004,-120.36328200000001,2018
CA,0637290,Soquel Elementary School District,KG,8,37770482,4034281,14.583,1.558,37.001389,-121.952059,2018
CA,0637320,Soulsbyville Elementary School District,KG,8,18699337,28641,7.22,0.011000000000000001,37.990353999999996,-120.270432,2018
CA,0637350,South Bay Union Elementary School District,KG,6,121635627,14869448,46.964,5.7410000000000005,40.686505,-124.156749,2018
CA,0637380,South Bay Union School District,KG,6,37921664,5023829,14.642000000000001,1.94,32.568560999999995,-117.100458,2018
CA,0637470,South Fork Union School District,KG,8,1116295178,2941448,431.004,1.136,35.617688,-118.19321299999999,2018
CA,0637560,South Whittier Elementary School District,KG,8,10547063,22815,4.072,0.009000000000000001,33.933318,-118.04528300000001,2018
CA,0637650,Southside Elementary School District,KG,8,34193823,0,13.202,0.0,36.772615,-121.34312299999999,2018
CA,0637680,Spencer Valley Elementary School District,KG,8,25349922,39165,9.788,0.015,33.108788,-116.648321,2018
CA,0637710,Spreckels Union Elementary School District,KG,6,196597414,3729195,75.907,1.44,36.57976,-121.63663100000001,2018
CA,0637770,Springville Union Elementary School District,KG,8,2236991449,585983,863.707,0.226,36.172777,-118.49208700000001,2018
CA,0637890,Standard Elementary School District,KG,8,96952988,219306,37.434,0.085,35.471954,-118.999251,2018
CA,0637950,Stanislaus Union Elementary School District,KG,8,43543541,255838,16.812,0.099,37.718488,-121.032357,2018
CA,0638040,Stone Corral Elementary School District,KG,8,50054221,0,19.326,0.0,36.478593,-119.196923,2018
CA,0638130,Strathmore Union Elementary School District,KG,8,167510461,57697,64.676,0.022000000000000002,36.16707,-118.98706299999999,2018
CA,0638220,Sulphur Springs Union Elementary School District,KG,6,201829268,266135,77.92699999999999,0.10300000000000001,34.42177,-118.400135,2018
CA,0638250,Summerville Elementary School District,KG,8,1543224638,27993811,595.842,10.808,38.040646,-119.837273,2018
CA,0638340,Sundale Union Elementary School District,KG,8,87472664,700389,33.773,0.27,36.218006,-119.24978600000001,2018
CA,0638430,Sunnyside Union Elementary School District,KG,8,95407915,3184,36.836999999999996,0.001,36.144478,-119.145882,2018
CA,0638460,Sunnyvale Elementary School District,KG,8,35549762,9341,13.725999999999999,0.004,37.389734999999995,-122.024759,2018
CA,0638550,Susanville Elementary School District,KG,8,1977641656,119110318,763.572,45.989,40.582706,-120.716925,2018
CA,0638670,Sylvan Union Elementary School District,KG,8,54553815,136021,21.063000000000002,0.053,37.697953999999996,-120.954233,2018
CA,0638700,Taft City School District,KG,8,302118998,896580,116.649,0.34600000000000003,35.161120000000004,-119.40535,2018
CA,0639060,Terra Bella Union Elementary School District,KG,8,193396241,50599,74.671,0.02,35.959718,-119.030795,2018
CA,0639180,Thermalito Union School District,KG,8,110938987,5816692,42.833999999999996,2.246,39.534113,-121.61534499999999,2018
CA,0639210,Three Rivers Union Elementary School District,KG,8,1823003271,6070456,703.8660000000001,2.344,36.436989000000004,-118.67153200000001,2018
CA,0639300,Tipton Elementary School District,KG,8,127153962,0,49.093999999999994,0.0,36.047709000000005,-119.31364199999999,2018
CA,0639600,Traver Joint Elementary School District,KG,8,99358948,54911,38.363,0.021,36.441634,-119.476977,2018
CA,0639690,Tres Pinos Union Elementary School District,KG,8,432644416,193070,167.045,0.075,36.790613,-121.16500400000001,2018
CA,0639720,Trinidad Union Elementary School District,KG,8,195849546,122392,75.618,0.047,41.045469,-124.020816,2018
CA,0639750,Trinity Center Elementary School District,KG,8,521918881,54482114,201.514,21.035999999999998,40.946994000000004,-122.72660400000001,2018
CA,0639870,Tulare City Elementary School District,KG,8,116668465,367457,45.04600000000001,0.142,36.172706,-119.311536,2018
CA,0640200,Twain Harte School District,KG,8,1739088740,18695523,671.466,7.218,38.239691,-119.98251100000002,2018
CA,0640230,Twin Hills Union Elementary School District,KG,8,49843510,0,19.245,0.0,38.364779,-122.84838400000001,2018
CA,0640260,Two Rock Union Elementary School District,KG,6,67581259,470346,26.093000000000004,0.182,38.265436,-122.777657,2018
CA,0640320,Union Elementary School District,KG,8,19006371,76460,7.337999999999999,0.03,37.241468,-121.91986299999999,2018
CA,0640380,Union Hill Elementary School District,KG,8,15420211,0,5.954,0.0,39.204921,-121.02111599999999,2018
CA,0640650,Valle Lindo Elementary School District,KG,8,7675503,869744,2.964,0.336,34.034467,-118.06011699999999,2018
CA,0640680,Vallecito Union Elementary School District,KG,8,516151723,2199834,199.287,0.8490000000000001,38.312139,-120.27828400000001,2018
CA,0640710,Vallecitos Elementary School District,KG,8,52524066,0,20.28,0.0,33.404579,-117.14071100000001,2018
CA,0640800,Valley Home Joint Elementary School District,KG,8,256927947,7771385,99.2,3.0010000000000003,37.921533000000004,-120.85696000000002,2018
CA,0641040,Victor Elementary School District,KG,6,101923258,1147439,39.353,0.44299999999999995,34.516133,-117.316425,2018
CA,0641130,Vineland Elementary School District,KG,8,87933130,85681,33.951,0.033,35.201454999999996,-118.90532900000001,2018
CA,0641220,Vista del Mar Union Elementary School District,KG,8,315072078,207580264,121.65,80.14699999999999,34.479619,-120.22583,2018
CA,0641250,Walnut Creek Elementary School District,KG,8,35771880,15373,13.812000000000001,0.006,37.885797,-122.05321299999999,2018
CA,0641400,Wasco Union Elementary School District,KG,8,314265427,5071,121.339,0.002,35.59028,-119.38046499999999,2018
CA,0641460,Washington Colony Elementary School District,KG,8,18738689,0,7.235,0.0,36.639047,-119.788913,2018
CA,0641610,Washington Union Elementary School District,KG,6,106794081,73421,41.233000000000004,0.027999999999999997,36.546503,-121.70133,2018
CA,0641790,Waugh Elementary School District,KG,6,18789872,0,7.255,0.0,38.288470000000004,-122.636577,2018
CA,0641820,Waukena Joint Union Elementary School District,KG,8,121726312,1940,46.998999999999995,0.001,36.14193,-119.4964,2018
CA,0641880,Weaver Union Elementary School District,KG,8,188451340,218168,72.76100000000001,0.084,37.269526,-120.42011299999999,2018
CA,0641980,Weed Union Elementary School District,KG,8,670536373,3924110,258.89599999999996,1.515,41.546434000000005,-122.17990400000001,2018
CA,0642060,West Park Elementary School District,KG,8,33534291,22647,12.948,0.009000000000000001,36.688394,-119.86696699999999,2018
CA,0642120,Westside Union Elementary School District,KG,8,815068916,4454391,314.7,1.72,34.718813,-118.368366,2018
CA,0642150,Westminster School District,KG,8,25969568,0,10.027000000000001,0.0,33.755561,-118.007818,2018
CA,0642180,Westmorland Union Elementary School District,KG,8,1153939334,197365992,445.538,76.203,33.017003,-115.849865,2018
CA,0642210,Westside Elementary School District,KG,8,369444416,695948,142.643,0.26899999999999996,36.378069,-120.22061000000001,2018
CA,0642270,West Side Union Elementary School District,KG,6,196912799,928878,76.028,0.359,38.587113,-122.99898,2018
CA,0642330,Wheatland Elementary School District,KG,8,306181253,2760114,118.21700000000001,1.0659999999999998,39.106099,-121.36818000000001,2018
CA,0642420,Whitmore Union Elementary School District,KG,8,920989914,1349865,355.596,0.521,40.643315,-121.649578,2018
CA,0642450,Whittier City Elementary School District,KG,8,38157841,381187,14.732999999999999,0.147,34.000724,-118.037098,2018
CA,0642600,Willow Creek Elementary School District,KG,8,232784018,284773,89.87799999999999,0.11,41.824931,-122.40868,2018
CA,0642630,Willow Grove Union Elementary School District,KG,8,351797983,338575,135.83,0.131,36.641749,-121.196005,2018
CA,0642750,Wilmar Union Elementary School District,KG,6,30881579,0,11.923,0.0,38.229088,-122.690344,2018
CA,0642810,Wilsona Elementary School District,KG,8,260139207,158724,100.44,0.061,34.627143,-117.764183,2018
CA,0642900,Winship Robbins Elementary School District,KG,8,328261724,3305427,126.743,1.276,38.975615999999995,-121.75958700000001,2018
CA,0642960,Winton School District,KG,8,17140613,0,6.617999999999999,0.0,37.403526,-120.61736,2018
CA,0643140,Woodside Elementary School District,KG,8,30233673,0,11.673,0.0,37.423429999999996,-122.279478,2018
CA,0643170,Woodville Elementary School District,KG,8,49342459,33015,19.051,0.013000000000000001,36.090771000000004,-119.18553,2018
CA,0643200,Wright Elementary School District,KG,6,14215861,0,5.489,0.0,38.422228999999994,-122.76302,2018
CA,0643380,Yreka Union Elementary School District,KG,8,417267224,1100011,161.108,0.425,41.772849,-122.694902,2018
CT,0900030,Andover School District,PK,6,40012484,635900,15.449000000000002,0.24600000000000002,41.732982,-72.374658,2018
CT,0900090,Ashford School District,PK,8,100392658,1832771,38.762,0.708,41.897123,-72.17142700000001,2018
CT,0900150,Barkhamsted School District,PK,6,93896806,6671465,36.254,2.576,41.935708,-72.972921,2018
CT,0900240,Bethany School District,PK,6,54669018,996204,21.108,0.385,41.422964,-72.994187,2018
CT,0900390,Bozrah School District,PK,12,51708109,723331,19.965,0.27899999999999997,41.545058000000004,-72.175228,2018
CT,0900570,Brooklyn School District,PK,12,75454825,282000,29.133000000000003,0.109,41.787243,-71.957401,2018
CT,0900630,Canaan School District,KG,8,85242556,836406,32.912,0.32299999999999995,41.962959000000005,-73.30714300000001,2018
CT,0900660,Canterbury School District,PK,12,103456495,683775,39.945,0.264,41.69396,-72.009118,2018
CT,0900720,Chaplin School District,PK,6,50222577,352486,19.391,0.136,41.790890000000005,-72.12954,2018
CT,0900780,Chester School District,PK,6,41573118,2010913,16.051,0.7759999999999999,41.411728000000004,-72.487146,2018
CT,0900870,Colebrook School District,KG,6,81722365,3551365,31.553,1.371,42.005371999999994,-73.063732,2018
CT,0900900,Columbia School District,PK,12,55355049,1587988,21.373,0.613,41.693707,-72.30567099999999,2018
CT,0900930,Cornwall School District,PK,8,119297399,656787,46.06100000000001,0.254,41.849649,-73.330095,2018
CT,0901080,Deep River School District,PK,6,35001764,1684244,13.514000000000001,0.65,41.367819,-72.47744200000001,2018
CT,0901380,Eastford School District,PK,12,74904508,891568,28.921,0.344,41.895590000000006,-72.093304,2018
CT,0901410,Easton School District,PK,8,71026021,3231994,27.423000000000002,1.248,41.264945000000004,-73.30047900000001,2018
CT,0901500,Essex School District,PK,6,26942174,3764185,10.402000000000001,1.453,41.349862,-72.413383,2018
CT,0901590,Franklin School District,PK,12,51049944,222178,19.71,0.086,41.621212,-72.142609,2018
CT,0901890,Hampton School District,PK,6,64988483,1052941,25.092,0.40700000000000003,41.78303,-72.064572,2018
CT,0901950,Hartland School District,PK,12,85456101,3932194,32.995,1.518,42.001205,-72.954027,2018
CT,0902010,Hebron School District,PK,6,95557620,904946,36.895,0.349,41.658584000000005,-72.39341999999999,2018
CT,0902040,Kent School District,PK,8,125813190,2676631,48.577,1.033,41.729782,-73.45414,2018
CT,0902190,Lisbon School District,PK,12,42200264,1018780,16.294,0.39299999999999996,41.602765999999995,-72.012261,2018
CT,0902340,Mansfield School District,PK,8,115605884,2640719,44.636,1.02,41.789272,-72.228464,2018
CT,0902370,Marlborough School District,PK,6,60479197,444481,23.351,0.172,41.636439,-72.454002,2018
CT,0902760,New Hartford School District,PK,6,95927216,2940726,37.038000000000004,1.135,41.841053,-72.998664,2018
CT,0902940,Norfolk School District,PK,6,117436918,2861079,45.343,1.105,41.969922,-73.178483,2018
CT,0903000,North Canaan School District,PK,8,50176809,268569,19.373,0.10400000000000001,42.022221,-73.295641,2018
CT,0903210,Orange School District,PK,6,44498747,616353,17.180999999999997,0.23800000000000002,41.284951,-73.024637,2018
CT,0903360,Pomfret School District,PK,12,104451274,647536,40.329,0.25,41.86804,-71.97225999999999,2018
CT,0903420,Preston School District,PK,12,79848697,2360639,30.83,0.9109999999999999,41.518652,-72.006597,2018
CT,0903510,Redding School District,PK,8,81735726,1421133,31.558000000000003,0.5489999999999999,41.305415,-73.392584,2018
CT,0903900,Salem School District,PK,12,74924894,2172864,28.929000000000002,0.8390000000000001,41.489351,-72.25838,2018
CT,0903930,Salisbury School District,PK,8,148239633,7341280,57.236000000000004,2.8339999999999996,41.986226,-73.425273,2018
CT,0903960,Scotland School District,PK,6,48254355,131514,18.631,0.051,41.69218,-72.09966,2018
CT,0904020,Sharon School District,PK,8,152201018,2058008,58.765,0.795,41.860763,-73.449215,2018
CT,0904080,Sherman School District,PK,12,56699462,3915523,21.892,1.5119999999999998,41.581237,-73.50157,2018
CT,0904260,Sprague School District,PK,12,34294921,1491928,13.241,0.5760000000000001,41.63557,-72.077527,2018
CT,0904350,Sterling School District,PK,12,70499878,171521,27.22,0.066,41.7012,-71.815988,2018
CT,0904650,Union School District,PK,12,74720104,2514328,28.85,0.971,41.999885,-72.162244,2018
CT,0904710,Voluntown School District,PK,12,100924002,2137004,38.967,0.825,41.579192,-71.831228,2018
CT,0905100,Willington School District,PK,8,86230287,582494,33.294000000000004,0.225,41.897267,-72.251848,2018
CT,0905310,Woodbridge School District,PK,6,48722328,971942,18.812,0.375,41.363538,-73.00389200000001,2018
CT,0905370,Woodstock School District,PK,12,157165207,3070895,60.681999999999995,1.186,41.966208,-72.022786,2018
GA,1300002,Fort Benning Schools,KG,8,681798458,4822333,263.244,1.8619999999999999,32.400475,-84.80227099999999,2018
IL,1700009,Pinckneyville School District 50,KG,8,486634816,4517879,187.891,1.744,38.117688,-89.46985699999999,2018
IL,1700010,Beach Park Community Consolidated School District 3,PK,8,65921573,858300,25.451999999999998,0.331,42.461156,-87.889284,2018
IL,1700065,Saunemin Community Consolidated School District 438,PK,8,218441408,79573,84.34100000000001,0.031,40.898781,-88.423592,2018
IL,1700077,Marengo-Union Elementary Consolidated District 165,PK,8,172014653,78070,66.415,0.03,42.267444,-88.59836700000001,2018
IL,1700103,New Holland-Middletown Elementary School District 88,KG,8,187520513,76792,72.402,0.03,40.14691,-89.54871800000001,2018
IL,1700112,Streator Elementary School District 44,PK,8,95145480,9812,36.736,0.004,41.138257,-88.882909,2018
IL,1700119,North Shore School District 112,PK,8,34230070,84688,13.216,0.033,42.184624,-87.81090400000001,2018
IL,1700222,Nippersink School District 2,KG,8,112961601,675203,43.615,0.261,42.447437,-88.26934,2018
IL,1700330,Prairieview-Ogden Community Consolidated School District 197,KG,8,258688371,397940,99.88,0.154,40.187034000000004,-88.028728,2018
IL,1701381,La Harpe Community School District 347,PK,8,365406060,69361,141.084,0.027000000000000003,40.571726,-90.984258,2018
IL,1701385,Carthage Elementary School District 317,PK,8,460179700,573239,177.676,0.221,40.402435,-91.10382800000001,2018
IL,1701388,Dallas Elementary School District 327,PK,8,121596217,15753157,46.949,6.082000000000001,40.633937,-91.138243,2018
IL,1701411,East Coloma-Nelson Consolidated Elementary School District 20,PK,8,42493543,3582932,16.407,1.383,41.769688,-89.61997,2018
IL,1701419,Spring Garden Community Consolidated School District 178,KG,8,134242976,4032694,51.832,1.557,38.212540999999995,-88.874881,2018
IL,1703150,Addison School District 4,PK,8,28128722,584645,10.860999999999999,0.226,41.930161,-88.001469,2018
IL,1703210,Akin Community Consolidated School District 91,KG,8,125484049,457755,48.45,0.177,38.000744,-88.76897199999999,2018
IL,1703270,Albers School District 63,PK,8,21405622,619224,8.265,0.239,38.552203999999996,-89.604028,2018
IL,1703420,Allen Township Community Consolidated School District 65,KG,8,167379673,78178,64.626,0.03,41.143762,-88.67325799999999,2018
IL,1703480,Alsip-Hazelgreen-Oaklawn School District 126,PK,8,13066733,82974,5.045,0.032,41.678974,-87.744775,2018
IL,1703750,Anna Community Consolidated School District 37,KG,8,133007190,1208630,51.354,0.467,37.452164,-89.172275,2018
IL,1703840,Antioch Community Consolidated School District 34,PK,8,83034152,9524798,32.06,3.678,42.468628,-88.07728900000001,2018
IL,1703900,Aptakisic-Tripp Community Consolidated School District,PK,8,16108533,165952,6.22,0.064,42.168733,-87.93950500000001,2018
IL,1703930,Arbor Park School District 145,PK,8,12792580,153356,4.939,0.059000000000000004,41.591614,-87.750068,2018
IL,1704050,Summit School District 104,PK,8,13005785,777619,5.022,0.3,41.780081,-87.81526600000001,2018
IL,1704140,Arlington Heights School District 25,PK,8,26244868,41892,10.133,0.016,42.092386,-87.981673,2018
IL,1704200,Armstrong-Ellis Consolidated School District 61,KG,8,237117219,186028,91.551,0.07200000000000001,40.263058,-87.873324,2018
IL,1704340,Ashley Community Consolidated School District 15,PK,8,214088862,254705,82.66,0.098,38.296848,-89.190678,2018
IL,1704560,Atwood Heights School District 125,PK,8,4875478,0,1.882,0.0,41.680483,-87.691244,2018
IL,1704740,Aviston School District 21,PK,8,52563449,37708,20.295,0.015,38.614071,-89.598235,2018
IL,1704800,Avoca School District 37,KG,8,8648954,98380,3.339,0.038,42.089511,-87.75835699999999,2018
IL,1704950,Bannockburn School District 106,KG,8,7282683,82485,2.812,0.032,42.192226,-87.869811,2018
IL,1705160,Bartelso School District 57,KG,8,60959924,307130,23.537,0.11900000000000001,38.520644,-89.459998,2018
IL,1705190,Bartonville School District 66,PK,8,4782334,380906,1.8459999999999999,0.147,40.643415000000005,-89.651638,2018
IL,1705466,Marseilles Elementary School District 150,PK,8,12772559,1789605,4.9319999999999995,0.691,41.327177,-88.69856300000001,2018
IL,1705570,Opdyke-Belle Rive Community Consolidated School District 5,KG,8,172414811,773699,66.57,0.299,38.205482,-88.770912,2018
IL,1705580,Belle Valley School District 119,PK,8,15067952,62766,5.818,0.024,38.503774,-89.94574300000001,2018
IL,1705610,Belleville School District 118,PK,8,63809922,973635,24.636999999999997,0.376,38.504907,-90.007233,2018
IL,1705760,Bellwood School District 88,PK,8,8618339,0,3.3280000000000003,0.0,41.886568,-87.87299200000001,2018
IL,1705880,Benjamin School District 25,PK,8,12933025,335608,4.993,0.13,41.911584999999995,-88.17241700000001,2018
IL,1705910,Bensenville School District 2,PK,8,18327339,164070,7.0760000000000005,0.063,41.957085,-87.945474,2018
IL,1705950,Benton Community Consolidated School District 47,PK,8,126696836,2645431,48.918,1.021,37.994766999999996,-88.92334100000001,2018
IL,1706000,Berkeley School District 87,PK,8,11945422,0,4.612,0.0,41.896479,-87.90287099999999,2018
IL,1706060,Berwyn North School District 98,PK,8,3376565,0,1.304,0.0,41.857909,-87.79140100000001,2018
IL,1706090,Berwyn South School District 100,PK,8,6735919,0,2.6010000000000004,0.0,41.836026000000004,-87.790688,2018
IL,1706180,Bethel School District 82,KG,8,13277223,70311,5.126,0.027000000000000003,38.282689000000005,-88.90791899999999,2018
IL,1706270,Big Hollow School District 38,KG,8,26723137,3586846,10.318,1.385,42.356078000000004,-88.162589,2018
IL,1706450,Bloomingdale School District 13,PK,8,12517927,517387,4.833,0.2,41.955849,-88.07909000000001,2018
IL,1706510,Cook County School District 130,PK,8,19089916,576033,7.371,0.222,41.656696000000004,-87.715802,2018
IL,1706750,Bourbonnais School District 53,PK,8,56704215,844593,21.894000000000002,0.326,41.180933,-87.899415,2018
IL,1706840,Braceville School District 75,KG,8,21257567,445840,8.208,0.172,41.223488,-88.272114,2018
IL,1706930,Bradley School District 61,PK,8,12789450,102644,4.938,0.04,41.151342,-87.856335,2018
IL,1707010,Breese School District 12,PK,8,195429649,65769,75.456,0.025,38.649356,-89.481452,2018
IL,1707170,Indian Springs School District 109,PK,8,13042289,60646,5.0360000000000005,0.023,41.753401000000004,-87.826941,2018
IL,1707290,Lemont-Bromberek Combined School District 113A,PK,8,61856416,1836260,23.883000000000003,0.7090000000000001,41.673976,-87.97255899999999,2018
IL,1707320,Brookfield School District 95,PK,8,3941181,0,1.5219999999999998,0.0,41.831215,-87.851662,2018
IL,1707740,Buncombe Consolidated School District 43,KG,8,87701856,1097367,33.861999999999995,0.424,37.449283,-88.987583,2018
IL,1707860,Burnham School District 154-5,PK,8,3210998,140553,1.24,0.054000000000000006,41.634974,-87.534872,2018
IL,1707980,Butler School District 53,KG,8,14443852,597495,5.577000000000001,0.231,41.833816,-87.951773,2018
IL,1708100,Lincoln Elementary School District 156,PK,8,3208911,108623,1.239,0.042,41.609857,-87.539241,2018
IL,1708130,Calumet Public School District 132,PK,8,5907428,239047,2.281,0.092,41.660314,-87.65776600000001,2018
IL,1708310,Carbon Cliff-Barstow School District 36,PK,8,18379194,798470,7.096,0.308,41.509401000000004,-90.365111,2018
IL,1708340,Carbondale Elementary School District 95,PK,8,94600049,1587445,36.525,0.613,37.747876,-89.209014,2018
IL,1708730,Cary Community Consolidated School District 26,PK,8,31701225,1728200,12.24,0.667,42.221222999999995,-88.22940799999999,2018
IL,1708790,Cass School District 63,PK,8,10999284,352604,4.247,0.136,41.729393,-87.97369599999999,2018
IL,1708970,Center Cass School District 66,PK,8,11448318,411254,4.42,0.159,41.735886,-88.010212,2018
IL,1709150,Central School District 51,PK,8,33539644,10661,12.95,0.004,40.718872,-89.460903,2018
IL,1709170,Central School District 104,KG,8,12663706,46247,4.888999999999999,0.018000000000000002,38.588195,-89.946699,2018
IL,1709180,Central City School District 133,PK,8,32590615,1280144,12.583,0.494,38.554259,-89.081876,2018
IL,1709210,Lockport School District 91,KG,8,5558647,330522,2.146,0.128,41.589258,-88.04802099999999,2018
IL,1709270,Centralia School District 135,PK,8,57311672,1555839,22.128,0.601,38.509935,-89.109342,2018
IL,1709510,Chaney-Monge School District 88,PK,8,11545132,187443,4.458,0.07200000000000001,41.574422,-88.09002,2018
IL,1709540,Channahon School District 17,PK,8,47585590,3943047,18.373,1.5219999999999998,41.424558000000005,-88.208751,2018
IL,1709850,Chester-East Lincoln Community Csd 61,PK,8,319659209,150094,123.421,0.057999999999999996,40.143506,-89.280168,2018
IL,1709960,Chicago Heights School District 170,PK,8,18764415,142551,7.245,0.055,41.504495,-87.643819,2018
IL,1709990,Chicago Ridge School District 127-5,PK,8,3656788,0,1.412,0.0,41.699115,-87.77290699999999,2018
IL,1710200,Cicero School District 99,PK,8,15856774,0,6.122000000000001,0.0,41.843740999999994,-87.758838,2018
IL,1710380,Skokie School District 73-5,PK,8,4038107,0,1.5590000000000002,0.0,42.02957,-87.724163,2018
IL,1710470,Community Consolidated School District 93,PK,8,29680091,1452247,11.46,0.561,41.933393,-88.12904300000001,2018
IL,1710690,Colona School District 190,PK,8,10201425,599689,3.9389999999999996,0.23199999999999998,41.483598,-90.35588100000001,2018
IL,1710860,Cornell Community Consolidated School District 426,KG,8,161729605,408522,62.443999999999996,0.158,40.993512,-88.723349,2018
IL,1710950,Ford Heights School District 169,PK,8,8557791,0,3.304,0.0,41.510325,-87.595114,2018
IL,1711010,Country Club Hills School District 160,PK,8,15384042,102416,5.94,0.04,41.550877,-87.734016,2018
IL,1711220,Creston Community Consolidated School District 161,KG,8,84899986,125383,32.78,0.048,41.945969,-88.978306,2018
IL,1711290,Creve Coeur School District 76,PK,8,13558140,607658,5.235,0.235,40.641247,-89.593935,2018
IL,1711350,Crystal Lake Community Consolidated School District 47,PK,8,107393775,2523214,41.465,0.9740000000000001,42.242034999999994,-88.336797,2018
IL,1711520,Cypress School District 64,PK,8,153142641,1175238,59.129,0.45399999999999996,37.362348,-88.977428,2018
IL,1711700,Dalzell School District 98,KG,8,9394420,26104,3.627,0.01,41.364546000000004,-89.173937,2018
IL,1711730,Damiansville School District 62,PK,8,41345872,458785,15.964,0.177,38.506313,-89.617124,2018
IL,1711910,Deer Park Community Consolidated School District 82,PK,8,125651478,6428469,48.513999999999996,2.4819999999999998,41.276321,-88.956049,2018
IL,1711980,Deerfield School District 109,PK,8,22683452,170379,8.758,0.066,42.168234000000005,-87.868308,2018
IL,1712120,Des Plaines Community Consolidated School District 62,PK,8,33546975,469130,12.953,0.18100000000000002,42.032915,-87.891265,2018
IL,1712150,De Soto Consolidated School District 86,PK,8,60172129,1993176,23.233,0.77,37.813202000000004,-89.220077,2018
IL,1712210,Diamond Lake School District 76,PK,8,9004447,681314,3.477,0.263,42.242367,-88.002282,2018
IL,1712270,Dimmick Community Consolidated School District 175,PK,8,144081784,79075,55.63,0.031,41.403612,-89.135552,2018
IL,1712420,Dolton School District 149,PK,8,13447077,432521,5.192,0.16699999999999998,41.624128999999996,-87.579449,2018
IL,1712450,Dolton School District 148,PK,8,12416141,143898,4.794,0.055999999999999994,41.636225,-87.624185,2018
IL,1712540,Downers Grove Grade School District 58,PK,8,43420489,478248,16.765,0.185,41.797198,-88.014546,2018
IL,1712840,Dwight Common School District 232,PK,8,330434644,145357,127.58200000000001,0.055999999999999994,41.085508000000004,-88.447486,2018
IL,1712960,East Alton School District 13,PK,8,8734539,98244,3.372,0.038,38.881852,-90.104141,2018
IL,1713140,East Maine School District 63,PK,8,15423173,40484,5.955,0.016,42.048229,-87.834801,2018
IL,1713170,East Moline School District 37,PK,8,34037865,3487636,13.142000000000001,1.347,41.503546,-90.429218,2018
IL,1713240,East Peoria School District 86,PK,8,63259685,9498328,24.425,3.667,40.679217,-89.54186800000001,2018
IL,1713260,East Prairie School District 73,KG,8,2718537,0,1.05,0.0,42.017984000000006,-87.723995,2018
IL,1713440,Lindop School District 92,KG,8,2203270,0,0.851,0.0,41.858740000000004,-87.854017,2018
IL,1713770,Community Consolidated School District 59,PK,8,58253858,1053144,22.491999999999997,0.40700000000000003,42.023489,-87.977313,2018
IL,1714160,Elwood Community Consolidated School District 203,KG,8,75386882,105280,29.107,0.040999999999999995,41.415528,-88.10005799999999,2018
IL,1714220,Harmony Emge School District 175,PK,8,17627735,38332,6.806,0.015,38.550087,-90.063696,2018
IL,1714250,Emmons School District 33,KG,8,9122953,1655113,3.522,0.639,42.457481,-88.108855,2018
IL,1714410,Eswood Community Consolidated District 269,KG,8,112397410,52054,43.397,0.02,42.026586,-88.974559,2018
IL,1714460,Evanston Community Consolidated School District 65,PK,8,23094786,57390,8.917,0.022000000000000002,42.047117,-87.69711099999999,2018
IL,1714550,Evergreen Park Elementary School District 124,PK,8,8191088,0,3.1630000000000003,0.0,41.721275,-87.701334,2018
IL,1714640,Ewing Northern Community Consolidated District 115,PK,8,199609845,43712553,77.07,16.878,38.083459000000005,-88.85300699999999,2018
IL,1714710,Fairfield Public School District 112,PK,8,168263397,505247,64.967,0.195,38.361847,-88.324494,2018
IL,1714760,Fairmont School District 89,PK,8,10439454,159028,4.031000000000001,0.061,41.564014,-88.048343,2018
IL,1714820,Skokie-Fairview School District 72,PK,8,4335103,0,1.6740000000000002,0.0,42.015083000000004,-87.760695,2018
IL,1714940,Farrington Community Consolidated School District 99,KG,8,102982404,219159,39.762,0.085,38.428197,-88.757047,2018
IL,1715090,Field Community Consolidated School District 3,PK,8,133697098,929022,51.621,0.359,38.412386,-88.857642,2018
IL,1715420,Flossmoor School District 161,PK,8,19143440,44483,7.391,0.017,41.541483,-87.680897,2018
IL,1715450,Forest Park School District 91,PK,8,6269218,0,2.421,0.0,41.867234,-87.814171,2018
IL,1715480,Forest Ridge School District 142,PK,8,12869479,0,4.968999999999999,0.0,41.62415,-87.75259,2018
IL,1715630,Fox Lake Grade School District 114,PK,8,14424878,7635565,5.569,2.948,42.41997,-88.181105,2018
IL,1715660,Fox River Grove Consolidated School District 3,KG,8,4113353,271831,1.588,0.105,42.192391,-88.222287,2018
IL,1715700,Frankfort Community Consolidated School District 157C,PK,8,44449106,12575,17.162,0.005,41.488347999999995,-87.8565,2018
IL,1715780,Franklin Park School District 84,PK,8,5835177,0,2.253,0.0,41.930385,-87.863812,2018
IL,1715820,Freeburg Community Consolidated School District 70,PK,8,183489113,6320493,70.846,2.44,38.414283000000005,-89.896907,2018
IL,1715930,Fremont School District 79,PK,8,81431496,3446487,31.441,1.331,42.279306,-88.062779,2018
IL,1716230,Gardner Community Consolidated School District 72C,KG,8,82749928,462016,31.95,0.17800000000000002,41.189316999999996,-88.334937,2018
IL,1716290,Gavin School District 37,PK,8,10783377,5392033,4.163,2.082,42.392727,-88.137899,2018
IL,1716320,Geff Community Consolidated School District 14,KG,8,71493348,0,27.604,0.0,38.427407,-88.407737,2018
IL,1716530,Germantown School District 60,PK,8,73649245,230616,28.436,0.08900000000000001,38.517497999999996,-89.54064699999999,2018
IL,1716560,Germantown Hills School District 69,PK,8,22848448,111544,8.822000000000001,0.043,40.76635,-89.4777,2018
IL,1716590,Giant City Community Consolidated School District 130,KG,8,90503336,6644912,34.944,2.5660000000000003,37.652506,-89.142496,2018
IL,1716650,Gifford Community Consolidated School District 188,PK,8,181780727,232868,70.186,0.09,40.319293,-88.011259,2018
IL,1716800,Glen Ellyn School District 41,PK,8,19554594,352402,7.55,0.136,41.884978000000004,-88.061588,2018
IL,1716860,Glencoe School District 35,KG,8,9956420,497003,3.844,0.192,42.1359,-87.766485,2018
IL,1716920,Glenview Community Consolidated School District 34,PK,8,32304672,262577,12.472999999999999,0.10099999999999999,42.077321999999995,-87.82587,2018
IL,1716950,Brookwood School District 167,PK,8,23283471,10459,8.99,0.004,41.536874,-87.604254,2018
IL,1717040,Woodridge School District 68,PK,8,19059855,430444,7.359,0.166,41.752864,-88.057472,2018
IL,1717160,Gower School District 62,KG,8,13464444,437306,5.199,0.16899999999999998,41.750931,-87.933657,2018
IL,1717190,Grand Prairie Community Consolidated School District 6,KG,8,92659754,291142,35.775999999999996,0.11199999999999999,38.43013,-89.09011600000001,2018
IL,1717220,Grand Ridge Community Consolidated School District 95,PK,8,279432663,784030,107.89,0.303,41.230061,-88.789559,2018
IL,1717310,Grant Community Consolidated School District 110,PK,8,23259608,126543,8.981,0.049,38.598289,-90.014202,2018
IL,1717490,Grass Lake School District 36,PK,8,7811955,6513108,3.016,2.515,42.436605,-88.144908,2018
IL,1717520,Grayslake Consolidated Community School District 46,PK,8,36922346,2001876,14.255999999999998,0.773,42.35089,-88.057671,2018
IL,1717800,Gurnee School District 56,PK,8,35601504,643752,13.745999999999999,0.249,42.395848,-87.909102,2018
IL,1717850,Northbrook Elementary School District 27,KG,8,11372455,75314,4.391,0.028999999999999998,42.133078000000005,-87.863112,2018
IL,1718090,Hampton School District 29,KG,8,12033433,2932969,4.646,1.1320000000000001,41.563103999999996,-90.384351,2018
IL,1718360,Harrison School District 36,PK,8,12521726,1099794,4.835,0.425,42.383054,-88.33423499999999,2018
IL,1718450,Harvey School District 152,PK,8,9845445,0,3.801,0.0,41.610405,-87.648816,2018
IL,1718480,West Harvey-Dixmoor Public School District 147,PK,8,7738341,0,2.988,0.0,41.625444,-87.667404,2018
IL,1718570,Hawthorn Community Consolidated School District 73,PK,8,27972990,754567,10.8,0.29100000000000004,42.246235,-87.955775,2018
IL,1718600,Hazel Crest School District 152-5,PK,8,9020966,0,3.483,0.0,41.582005,-87.65964699999999,2018
IL,1718960,High Mount School District 116,PK,8,4029341,59236,1.556,0.023,38.537848,-89.991012,2018
IL,1719110,LaGrange Highlands School District 106,PK,8,7635041,0,2.948,0.0,41.784118,-87.892142,2018
IL,1719230,Hillside School District 93,KG,8,12008617,0,4.637,0.0,41.856214,-87.905058,2018
IL,1719290,Hinsdale Community Consolidated School District 181,PK,8,19385962,185329,7.485,0.07200000000000001,41.797883,-87.931373,2018
IL,1719420,Hollis Consolidated School District 328,KG,8,20585772,1778752,7.9479999999999995,0.687,40.58647,-89.669107,2018
IL,1719500,Homer Community Consolidated School District 33C,PK,8,66018073,223157,25.49,0.086,41.592218,-87.964155,2018
IL,1719530,Homewood School District 153,PK,8,11544772,109629,4.457,0.042,41.560376,-87.653093,2018
IL,1719680,Hoover-Schrum Memorial School District 157,PK,8,6334094,21088,2.4459999999999997,0.008,41.598262,-87.548606,2018
IL,1720190,Irvington County Community Unit School District 11,PK,8,64204969,166286,24.79,0.064,38.435217,-89.186649,2018
IL,1720220,Itasca School District 10,PK,8,12069309,450861,4.66,0.174,41.972460999999996,-88.016049,2018
IL,1720250,Iuka Community Consolidated School District 7,PK,8,248037290,447678,95.76799999999999,0.17300000000000001,38.592005,-88.759311,2018
IL,1720370,Jasper Community Consolidated School District 17,KG,8,80555052,211991,31.101999999999997,0.08199999999999999,38.417846999999995,-88.30852800000001,2018
IL,1720580,Joliet Public School District 86,PK,8,57614291,1476901,22.245,0.57,41.527421000000004,-88.077984,2018
